{"type": "FeatureCollection", "features": [{"type": "Feature", "properties": {"name": "Alagnak Wild River National Park", "reference": "K-0002", "activated": "False"}, "geometry": {"type": "Point", "coordinates": [-156.463, 59.0908]}}, {"type": "Feature", "properties": {"name": "Aniakchak National Preserve", "reference": "K-0003", "activated": "False"}, "geometry": {"type": "Point", "coordinates": [-157.83, 56.8075]}}, {"type": "Feature", "properties": {"name": "Arches National Park", "reference": "K-0004", "activated": "True"}, "geometry": {"type": "Point", "coordinates": [-109.62, 38.6166]}}, {"type": "Feature", "properties": {"name": "Badlands National Park", "reference": "K-0005", "activated": "True"}, "geometry": {"type": "Point", "coordinates": [-102.339, 43.8555]}}, {"type": "Feature", "properties": {"name": "Big Bend National Park", "reference": "K-0006", "activated": "True"}, "geometry": {"type": "Point", "coordinates": [-103.232, 29.1287]}}, {"type": "Feature", "properties": {"name": "Biscayne Bay National Park", "reference": "K-0007", "activated": "True"}, "geometry": {"type": "Point", "coordinates": [-80.3353, 25.4643]}}, {"type": "Feature", "properties": {"name": "Black Canyon of the Gunnison National Park", "reference": "K-0008", "activated": "True"}, "geometry": {"type": "Point", "coordinates": [-107.731, 38.5762]}}, {"type": "Feature", "properties": {"name": "Bryce Canyon National Park", "reference": "K-0009", "activated": "True"}, "geometry": {"type": "Point", "coordinates": [-112.159, 37.5945]}}, {"type": "Feature", "properties": {"name": "Canyonlands National Park", "reference": "K-0010", "activated": "True"}, "geometry": {"type": "Point", "coordinates": [-109.826, 38.3301]}}, {"type": "Feature", "properties": {"name": "Capitol Reef National Park", "reference": "K-0011", "activated": "True"}, "geometry": {"type": "Point", "coordinates": [-111.209, 38.3712]}}, {"type": "Feature", "properties": {"name": "Carlsbad Caverns National Park", "reference": "K-0012", "activated": "True"}, "geometry": {"type": "Point", "coordinates": [-104.444, 32.1754]}}, {"type": "Feature", "properties": {"name": "Chaco Culture National Historical Park", "reference": "K-0013", "activated": "True"}, "geometry": {"type": "Point", "coordinates": [-107.956, 36.053]}}, {"type": "Feature", "properties": {"name": "Channel Islands National Park", "reference": "K-0014", "activated": "True"}, "geometry": {"type": "Point", "coordinates": [-119.731, 34.0026]}}, {"type": "Feature", "properties": {"name": "Chesapeake and Ohio Canal National Historical Park", "reference": "K-0015", "activated": "True"}, "geometry": {"type": "Point", "coordinates": [-77.8265, 39.6007]}}, {"type": "Feature", "properties": {"name": "Colonial National Historical Park", "reference": "K-0016", "activated": "True"}, "geometry": {"type": "Point", "coordinates": [-76.5025, 37.2305]}}, {"type": "Feature", "properties": {"name": "Congaree National Park", "reference": "K-0017", "activated": "True"}, "geometry": {"type": "Point", "coordinates": [-80.8289, 33.8432]}}, {"type": "Feature", "properties": {"name": "Crater Lake National Park", "reference": "K-0018", "activated": "True"}, "geometry": {"type": "Point", "coordinates": [-122.144, 42.87]}}, {"type": "Feature", "properties": {"name": "Cumberland Gap National Historical Park", "reference": "K-0019", "activated": "True"}, "geometry": {"type": "Point", "coordinates": [-83.6741, 36.6038]}}, {"type": "Feature", "properties": {"name": "Cuyahoga Valley National Park", "reference": "K-0020", "activated": "True"}, "geometry": {"type": "Point", "coordinates": [-81.5585, 41.2628]}}, {"type": "Feature", "properties": {"name": "Death Valley National Park", "reference": "K-0021", "activated": "True"}, "geometry": {"type": "Point", "coordinates": [-116.906, 36.8114]}}, {"type": "Feature", "properties": {"name": "Denali National Park", "reference": "K-0022", "activated": "True"}, "geometry": {"type": "Point", "coordinates": [-148.896, 63.7364]}}, {"type": "Feature", "properties": {"name": "Dry Tortugas National Park", "reference": "K-0023", "activated": "True"}, "geometry": {"type": "Point", "coordinates": [-82.8723, 24.6285]}}, {"type": "Feature", "properties": {"name": "Everglades National Park", "reference": "K-0024", "activated": "True"}, "geometry": {"type": "Point", "coordinates": [-80.8734, 25.2885]}}, {"type": "Feature", "properties": {"name": "Fort Morgan National Historic Site", "reference": "K-0025", "activated": "True"}, "geometry": {"type": "Point", "coordinates": [-88.0174, 30.2296]}}, {"type": "Feature", "properties": {"name": "Gates of the Arctic National Park", "reference": "K-0026", "activated": "False"}, "geometry": {"type": "Point", "coordinates": [-151.764, 68.1358]}}, {"type": "Feature", "properties": {"name": "Gettysburg National Military Park", "reference": "K-0027", "activated": "True"}, "geometry": {"type": "Point", "coordinates": [-77.2245, 39.8107]}}, {"type": "Feature", "properties": {"name": "Glacier National Park", "reference": "K-0028", "activated": "True"}, "geometry": {"type": "Point", "coordinates": [-113.725, 48.773]}}, {"type": "Feature", "properties": {"name": "Glacier Bay National Preserve", "reference": "K-0029", "activated": "False"}, "geometry": {"type": "Point", "coordinates": [-135.888, 58.4529]}}, {"type": "Feature", "properties": {"name": "Grand Canyon National Park", "reference": "K-0030", "activated": "True"}, "geometry": {"type": "Point", "coordinates": [-112.003, 36.1044]}}, {"type": "Feature", "properties": {"name": "Grand Teton National Park", "reference": "K-0031", "activated": "True"}, "geometry": {"type": "Point", "coordinates": [-110.632, 43.7935]}}, {"type": "Feature", "properties": {"name": "Great Basin National Park", "reference": "K-0032", "activated": "True"}, "geometry": {"type": "Point", "coordinates": [-114.219, 39.0056]}}, {"type": "Feature", "properties": {"name": "Great Sand Dunes National Park", "reference": "K-0033", "activated": "True"}, "geometry": {"type": "Point", "coordinates": [-105.581, 37.7942]}}, {"type": "Feature", "properties": {"name": "Great Smoky Mountains National Park", "reference": "K-0034", "activated": "True"}, "geometry": {"type": "Point", "coordinates": [-83.4462, 35.6154]}}, {"type": "Feature", "properties": {"name": "Guadalupe Mountains National Park", "reference": "K-0035", "activated": "True"}, "geometry": {"type": "Point", "coordinates": [-104.861, 31.9475]}}, {"type": "Feature", "properties": {"name": "Haleakala National Park", "reference": "K-0036", "activated": "True"}, "geometry": {"type": "Point", "coordinates": [-156.045, 20.6618]}}, {"type": "Feature", "properties": {"name": "Hawai'i Volcanoes National Park", "reference": "K-0037", "activated": "True"}, "geometry": {"type": "Point", "coordinates": [-155.257, 19.4309]}}, {"type": "Feature", "properties": {"name": "Hot Springs National Park", "reference": "K-0038", "activated": "True"}, "geometry": {"type": "Point", "coordinates": [-93.0363, 34.522]}}, {"type": "Feature", "properties": {"name": "Isle Royale National Park", "reference": "K-0039", "activated": "True"}, "geometry": {"type": "Point", "coordinates": [-88.8659, 47.9988]}}, {"type": "Feature", "properties": {"name": "Jean Lafitte National Historical Park", "reference": "K-0040", "activated": "True"}, "geometry": {"type": "Point", "coordinates": [-90.1413, 29.8116]}}, {"type": "Feature", "properties": {"name": "Joshua Tree National Park", "reference": "K-0041", "activated": "True"}, "geometry": {"type": "Point", "coordinates": [-115.824, 33.7548]}}, {"type": "Feature", "properties": {"name": "Fort Gains National Historic Site", "reference": "K-0042", "activated": "True"}, "geometry": {"type": "Point", "coordinates": [-88.0756, 30.2483]}}, {"type": "Feature", "properties": {"name": "Kalaupapa National Historical Park", "reference": "K-0043", "activated": "True"}, "geometry": {"type": "Point", "coordinates": [-156.98, 21.1879]}}, {"type": "Feature", "properties": {"name": "Katmai National Park", "reference": "K-0044", "activated": "False"}, "geometry": {"type": "Point", "coordinates": [-155.778, 58.5572]}}, {"type": "Feature", "properties": {"name": "Kenai Fjords National Park", "reference": "K-0045", "activated": "True"}, "geometry": {"type": "Point", "coordinates": [-149.687, 60.1829]}}, {"type": "Feature", "properties": {"name": "Kings Canyon National Park", "reference": "K-0046", "activated": "True"}, "geometry": {"type": "Point", "coordinates": [-118.67, 36.7899]}}, {"type": "Feature", "properties": {"name": "Kobuk Valley National Park", "reference": "K-0047", "activated": "False"}, "geometry": {"type": "Point", "coordinates": [-159.791, 67.0807]}}, {"type": "Feature", "properties": {"name": "Lake Clark National Park", "reference": "K-0048", "activated": "False"}, "geometry": {"type": "Point", "coordinates": [-154.049, 60.6626]}}, {"type": "Feature", "properties": {"name": "Lassen Volcanic National Park", "reference": "K-0049", "activated": "True"}, "geometry": {"type": "Point", "coordinates": [-121.534, 40.4352]}}, {"type": "Feature", "properties": {"name": "Mammoth Cave National Park", "reference": "K-0050", "activated": "True"}, "geometry": {"type": "Point", "coordinates": [-86.0943, 37.1877]}}, {"type": "Feature", "properties": {"name": "Mesa Verde National Park", "reference": "K-0051", "activated": "True"}, "geometry": {"type": "Point", "coordinates": [-108.491, 37.1839]}}, {"type": "Feature", "properties": {"name": "Mount Rainier National Park", "reference": "K-0052", "activated": "True"}, "geometry": {"type": "Point", "coordinates": [-121.705, 46.8826]}}, {"type": "Feature", "properties": {"name": "American Samoa National Park", "reference": "K-0053", "activated": "False"}, "geometry": {"type": "Point", "coordinates": [-170.681, -14.259]}}, {"type": "Feature", "properties": {"name": "Nez Perce National Historical Park", "reference": "K-0054", "activated": "True"}, "geometry": {"type": "Point", "coordinates": [-116.824, 46.447]}}, {"type": "Feature", "properties": {"name": "North Cascades National Park", "reference": "K-0055", "activated": "True"}, "geometry": {"type": "Point", "coordinates": [-121.256, 48.7758]}}, {"type": "Feature", "properties": {"name": "Olympic National Park", "reference": "K-0056", "activated": "True"}, "geometry": {"type": "Point", "coordinates": [-123.418, 48.0468]}}, {"type": "Feature", "properties": {"name": "Petrified Forest National Park", "reference": "K-0057", "activated": "True"}, "geometry": {"type": "Point", "coordinates": [-109.779, 35.0659]}}, {"type": "Feature", "properties": {"name": "Redwood National Park", "reference": "K-0058", "activated": "True"}, "geometry": {"type": "Point", "coordinates": [-124.083, 41.7978]}}, {"type": "Feature", "properties": {"name": "Rocky Mountain National Park", "reference": "K-0059", "activated": "True"}, "geometry": {"type": "Point", "coordinates": [-105.649, 40.3535]}}, {"type": "Feature", "properties": {"name": "Saguaro National Park", "reference": "K-0060", "activated": "True"}, "geometry": {"type": "Point", "coordinates": [-111.131, 32.3048]}}, {"type": "Feature", "properties": {"name": "San Juan Island National Historical Park", "reference": "K-0061", "activated": "True"}, "geometry": {"type": "Point", "coordinates": [-123.017, 48.4663]}}, {"type": "Feature", "properties": {"name": "Saratoga National Historical Park", "reference": "K-0062", "activated": "True"}, "geometry": {"type": "Point", "coordinates": [-73.6478, 43.0123]}}, {"type": "Feature", "properties": {"name": "Sequoia National Park", "reference": "K-0063", "activated": "True"}, "geometry": {"type": "Point", "coordinates": [-118.732, 36.6036]}}, {"type": "Feature", "properties": {"name": "Shenandoah National Park", "reference": "K-0064", "activated": "True"}, "geometry": {"type": "Point", "coordinates": [-78.1988, 38.9068]}}, {"type": "Feature", "properties": {"name": "Theodore Roosevelt National Park", "reference": "K-0065", "activated": "True"}, "geometry": {"type": "Point", "coordinates": [-103.528, 46.9166]}}, {"type": "Feature", "properties": {"name": "Virgin Islands National Park", "reference": "K-0066", "activated": "True"}, "geometry": {"type": "Point", "coordinates": [-64.7937, 18.3329]}}, {"type": "Feature", "properties": {"name": "Voyageurs National Park", "reference": "K-0067", "activated": "True"}, "geometry": {"type": "Point", "coordinates": [-93.0303, 48.4443]}}, {"type": "Feature", "properties": {"name": "Wind Cave National Park", "reference": "K-0068", "activated": "True"}, "geometry": {"type": "Point", "coordinates": [-103.432, 43.6062]}}, {"type": "Feature", "properties": {"name": "Wrangell-St. Elias National Park", "reference": "K-0069", "activated": "True"}, "geometry": {"type": "Point", "coordinates": [-142.835, 61.5124]}}, {"type": "Feature", "properties": {"name": "Yellowstone National Park", "reference": "K-0070", "activated": "True"}, "geometry": {"type": "Point", "coordinates": [-110.587, 44.4281]}}, {"type": "Feature", "properties": {"name": "Yosemite National Park", "reference": "K-0071", "activated": "True"}, "geometry": {"type": "Point", "coordinates": [-119.585, 37.7477]}}, {"type": "Feature", "properties": {"name": "Zion National Park", "reference": "K-0072", "activated": "True"}, "geometry": {"type": "Point", "coordinates": [-113.006, 37.3021]}}, {"type": "Feature", "properties": {"name": "Amundsen and Scott South Pole Station Antarctic Station", "reference": "K-0073", "activated": "False"}, "geometry": {"type": "Point", "coordinates": [139.273, -89.9976]}}, {"type": "Feature", "properties": {"name": "Beardmore South Camp Antarctic Station", "reference": "K-0074", "activated": "False"}, "geometry": {"type": "Point", "coordinates": [-160.5, -84.0]}}, {"type": "Feature", "properties": {"name": "Brockton II Station Antarctic Station", "reference": "K-0075", "activated": "False"}, "geometry": {"type": "Point", "coordinates": [-178.7, -80.0333]}}, {"type": "Feature", "properties": {"name": "Byrd Station Antarctic Station", "reference": "K-0076", "activated": "False"}, "geometry": {"type": "Point", "coordinates": [-118.067, -79.4333]}}, {"type": "Feature", "properties": {"name": "Byrd Surface Camp Antarctic Station", "reference": "K-0077", "activated": "False"}, "geometry": {"type": "Point", "coordinates": [-119.566, -80.0147]}}, {"type": "Feature", "properties": {"name": "Byrd VLF Substation Antarctic Station", "reference": "K-0078", "activated": "False"}, "geometry": {"type": "Point", "coordinates": [-120.3, -79.54]}}, {"type": "Feature", "properties": {"name": "Central West Camp Antarctic Station", "reference": "K-0079", "activated": "False"}, "geometry": {"type": "Point", "coordinates": [-118.0, -82.5]}}, {"type": "Feature", "properties": {"name": "Dome Charlie Antarctic Station", "reference": "K-0080", "activated": "False"}, "geometry": {"type": "Point", "coordinates": [-124.0, -74.0]}}, {"type": "Feature", "properties": {"name": "Downstream Bravo Camp Antarctic Station", "reference": "K-0081", "activated": "False"}, "geometry": {"type": "Point", "coordinates": [-155.0, -84.0]}}, {"type": "Feature", "properties": {"name": "East Camp Vostok Antarctic Station", "reference": "K-0082", "activated": "False"}, "geometry": {"type": "Point", "coordinates": [-106.48, -78.28]}}, {"type": "Feature", "properties": {"name": "Eights Station (Sky High) Camp Antarctic Station", "reference": "K-0083", "activated": "False"}, "geometry": {"type": "Point", "coordinates": [-77.1, -75.1]}}, {"type": "Feature", "properties": {"name": "Fuchs Sound Camp Antarctic Station", "reference": "K-0084", "activated": "False"}, "geometry": {"type": "Point", "coordinates": [-66.36, -67.22]}}, {"type": "Feature", "properties": {"name": "Hallett Station Antarctic Station", "reference": "K-0085", "activated": "False"}, "geometry": {"type": "Point", "coordinates": [167.56, -72.5474]}}, {"type": "Feature", "properties": {"name": "Leverett Glacier Camp Antarctic Station", "reference": "K-0086", "activated": "False"}, "geometry": {"type": "Point", "coordinates": [-147.583, -85.6333]}}, {"type": "Feature", "properties": {"name": "Little America V Station Antarctic Station", "reference": "K-0087", "activated": "False"}, "geometry": {"type": "Point", "coordinates": [-162.183, -78.4152]}}, {"type": "Feature", "properties": {"name": "Little Rockford II Station Antarctic Station", "reference": "K-0088", "activated": "False"}, "geometry": {"type": "Point", "coordinates": [-147.19, -79.3]}}, {"type": "Feature", "properties": {"name": "Marble Point Camp Antarctic Station", "reference": "K-0089", "activated": "False"}, "geometry": {"type": "Point", "coordinates": [163.5, -77.4131]}}, {"type": "Feature", "properties": {"name": "McMurdo Station Antarctic Station", "reference": "K-0090", "activated": "False"}, "geometry": {"type": "Point", "coordinates": [166.706, -77.8478]}}, {"type": "Feature", "properties": {"name": "North Victoria Land Camp Antarctic Station", "reference": "K-0091", "activated": "False"}, "geometry": {"type": "Point", "coordinates": [163.52, -72.13]}}, {"type": "Feature", "properties": {"name": "Palmer Station Antarctic Station", "reference": "K-0092", "activated": "False"}, "geometry": {"type": "Point", "coordinates": [-64.0527, -64.7742]}}, {"type": "Feature", "properties": {"name": "Pieter J. Lenie Field Station (Copacabana) Antarctic Station", "reference": "K-0093", "activated": "False"}, "geometry": {"type": "Point", "coordinates": [-58.28, -62.1]}}, {"type": "Feature", "properties": {"name": "Plateau Station Antarctic Station", "reference": "K-0094", "activated": "False"}, "geometry": {"type": "Point", "coordinates": [40.3, -79.15]}}, {"type": "Feature", "properties": {"name": "Siple Dome Camp Antarctic Station", "reference": "K-0095", "activated": "False"}, "geometry": {"type": "Point", "coordinates": [-149.0, -81.65]}}, {"type": "Feature", "properties": {"name": "Siple Station Antarctic Station", "reference": "K-0096", "activated": "False"}, "geometry": {"type": "Point", "coordinates": [-84.15, -75.56]}}, {"type": "Feature", "properties": {"name": "Upper West Station Camp Antarctic Station", "reference": "K-0098", "activated": "False"}, "geometry": {"type": "Point", "coordinates": [-111.21, -82.11]}}, {"type": "Feature", "properties": {"name": "Upstream B Camp Antarctic Station", "reference": "K-0099", "activated": "False"}, "geometry": {"type": "Point", "coordinates": [-138.06, -83.29]}}, {"type": "Feature", "properties": {"name": "Upstream C Camp Antarctic Station", "reference": "K-0100", "activated": "False"}, "geometry": {"type": "Point", "coordinates": [-135.56, -82.26]}}, {"type": "Feature", "properties": {"name": "Wilkes Station Antarctic Station", "reference": "K-0101", "activated": "False"}, "geometry": {"type": "Point", "coordinates": [110.526, -66.2571]}}, {"type": "Feature", "properties": {"name": "Williams Field Antarctic Station", "reference": "K-0102", "activated": "False"}, "geometry": {"type": "Point", "coordinates": [166.307, -78.7253]}}, {"type": "Feature", "properties": {"name": "El Yunque National Forest", "reference": "K-0103", "activated": "True"}, "geometry": {"type": "Point", "coordinates": [-65.7853, 18.3011]}}, {"type": "Feature", "properties": {"name": "Toro Negro State Forest", "reference": "K-0104", "activated": "True"}, "geometry": {"type": "Point", "coordinates": [-66.5634, 18.1579]}}, {"type": "Feature", "properties": {"name": "Camuy River Caves National Park", "reference": "K-0106", "activated": "True"}, "geometry": {"type": "Point", "coordinates": [-66.8225, 18.3458]}}, {"type": "Feature", "properties": {"name": "Isla De Mona E Islote Monito State Natural Reserve", "reference": "K-0108", "activated": "False"}, "geometry": {"type": "Point", "coordinates": [-67.8895, 18.0833]}}, {"type": "Feature", "properties": {"name": "Guam National Wildlife Refuge", "reference": "K-0110", "activated": "False"}, "geometry": {"type": "Point", "coordinates": [144.862, 13.6535]}}, {"type": "Feature", "properties": {"name": "Baker Island National Wildlife Refuge", "reference": "K-0111", "activated": "False"}, "geometry": {"type": "Point", "coordinates": [-176.479, 0.19432]}}, {"type": "Feature", "properties": {"name": "Johnston Island National Wildlife Refuge", "reference": "K-0112", "activated": "False"}, "geometry": {"type": "Point", "coordinates": [-169.533, 16.732]}}, {"type": "Feature", "properties": {"name": "Kingman Reef National Wildlife Refuge", "reference": "K-0113", "activated": "False"}, "geometry": {"type": "Point", "coordinates": [-162.372, 6.3824]}}, {"type": "Feature", "properties": {"name": "Midway Atoll National Wildlife Refuge", "reference": "K-0114", "activated": "False"}, "geometry": {"type": "Point", "coordinates": [-177.382, 28.2072]}}, {"type": "Feature", "properties": {"name": "Jarvis Island National Wildlife Refuge", "reference": "K-0115", "activated": "False"}, "geometry": {"type": "Point", "coordinates": [-159.998, -0.373708]}}, {"type": "Feature", "properties": {"name": "Palmyra Atoll National Wildlife Refuge", "reference": "K-0116", "activated": "False"}, "geometry": {"type": "Point", "coordinates": [-162.081, 5.8807]}}, {"type": "Feature", "properties": {"name": "Hakalau Forest National Wildlife Refuge", "reference": "K-0117", "activated": "False"}, "geometry": {"type": "Point", "coordinates": [-155.321, 19.793]}}, {"type": "Feature", "properties": {"name": "Hanalei National Wildlife Refuge", "reference": "K-0118", "activated": "False"}, "geometry": {"type": "Point", "coordinates": [-159.468, 22.2012]}}, {"type": "Feature", "properties": {"name": "Hawaiian Islands National Wildlife Refuge", "reference": "K-0119", "activated": "True"}, "geometry": {"type": "Point", "coordinates": [-177.355, 28.2247]}}, {"type": "Feature", "properties": {"name": "Ginkgo Petrified Forest State Park", "reference": "K-0120", "activated": "True"}, "geometry": {"type": "Point", "coordinates": [-119.989, 46.9008]}}, {"type": "Feature", "properties": {"name": "Kure Atoll State Wildlife Area", "reference": "K-0121", "activated": "False"}, "geometry": {"type": "Point", "coordinates": [-178.332, 28.4168]}}, {"type": "Feature", "properties": {"name": "Howland Island National Wildlife Refuge", "reference": "K-0122", "activated": "False"}, "geometry": {"type": "Point", "coordinates": [-176.617, 0.807606]}}, {"type": "Feature", "properties": {"name": "Huleia National Wildlife Refuge", "reference": "K-0123", "activated": "False"}, "geometry": {"type": "Point", "coordinates": [-159.384, 21.9464]}}, {"type": "Feature", "properties": {"name": "James Campbell National Wildlife Refuge", "reference": "K-0124", "activated": "True"}, "geometry": {"type": "Point", "coordinates": [-157.952, 21.6882]}}, {"type": "Feature", "properties": {"name": "Kakahaia National Wildlife Refuge", "reference": "K-0125", "activated": "False"}, "geometry": {"type": "Point", "coordinates": [-156.941, 21.0642]}}, {"type": "Feature", "properties": {"name": "Kealia Pond National Wildlife Refuge", "reference": "K-0126", "activated": "True"}, "geometry": {"type": "Point", "coordinates": [-156.468, 20.7922]}}, {"type": "Feature", "properties": {"name": "Kilauea Point National Wildlife Refuge", "reference": "K-0127", "activated": "False"}, "geometry": {"type": "Point", "coordinates": [-159.402, 22.2317]}}, {"type": "Feature", "properties": {"name": "O'ahu Forest National Wildlife Refuge", "reference": "K-0128", "activated": "False"}, "geometry": {"type": "Point", "coordinates": [-157.923, 21.479]}}, {"type": "Feature", "properties": {"name": "Pearl Harbor National Wildlife Refuge", "reference": "K-0129", "activated": "True"}, "geometry": {"type": "Point", "coordinates": [-158.087, 21.3011]}}, {"type": "Feature", "properties": {"name": "Rose Atoll National Wildlife Refuge", "reference": "K-0130", "activated": "False"}, "geometry": {"type": "Point", "coordinates": [-168.155, -14.5446]}}, {"type": "Feature", "properties": {"name": "Navassa Island National Wildlife Refuge", "reference": "K-0131", "activated": "False"}, "geometry": {"type": "Point", "coordinates": [-75.0124, 18.408]}}, {"type": "Feature", "properties": {"name": "Cabo Rojo National Wildlife Refuge", "reference": "K-0132", "activated": "True"}, "geometry": {"type": "Point", "coordinates": [-67.1674, 17.9807]}}, {"type": "Feature", "properties": {"name": "Desecheo National Wildlife Refuge", "reference": "K-0133", "activated": "True"}, "geometry": {"type": "Point", "coordinates": [-67.4795, 18.3879]}}, {"type": "Feature", "properties": {"name": "Laguna Cartagena National Wildlife Refuge", "reference": "K-0134", "activated": "True"}, "geometry": {"type": "Point", "coordinates": [-67.1029, 18.011]}}, {"type": "Feature", "properties": {"name": "Vieques National Wildlife Refuge", "reference": "K-0135", "activated": "True"}, "geometry": {"type": "Point", "coordinates": [-65.4368, 18.1216]}}, {"type": "Feature", "properties": {"name": "Bon Secour National Wildlife Refuge", "reference": "K-0136", "activated": "True"}, "geometry": {"type": "Point", "coordinates": [-87.8249, 30.2415]}}, {"type": "Feature", "properties": {"name": "Cahaba River National Wildlife Refuge", "reference": "K-0137", "activated": "True"}, "geometry": {"type": "Point", "coordinates": [-87.0678, 33.0614]}}, {"type": "Feature", "properties": {"name": "Choctaw National Wildlife Refuge", "reference": "K-0138", "activated": "True"}, "geometry": {"type": "Point", "coordinates": [-88.1922, 31.8151]}}, {"type": "Feature", "properties": {"name": "Eufaula National Wildlife Refuge", "reference": "K-0139", "activated": "True"}, "geometry": {"type": "Point", "coordinates": [-85.0948, 31.9959]}}, {"type": "Feature", "properties": {"name": "Fern Cave National Wildlife Refuge", "reference": "K-0140", "activated": "True"}, "geometry": {"type": "Point", "coordinates": [-86.3134, 34.6737]}}, {"type": "Feature", "properties": {"name": "Key Cave National Wildlife Refuge", "reference": "K-0141", "activated": "True"}, "geometry": {"type": "Point", "coordinates": [-87.7881, 34.7569]}}, {"type": "Feature", "properties": {"name": "Arctic National Wildlife Refuge", "reference": "K-0142", "activated": "False"}, "geometry": {"type": "Point", "coordinates": [-149.326, 68.445]}}, {"type": "Feature", "properties": {"name": "Alaska Maritime National Wildlife Refuge", "reference": "K-0143", "activated": "False"}, "geometry": {"type": "Point", "coordinates": [-176.667, 51.8677]}}, {"type": "Feature", "properties": {"name": "Alaska Peninsula National Wildlife Refuge", "reference": "K-0144", "activated": "True"}, "geometry": {"type": "Point", "coordinates": [-162.23, 55.025]}}, {"type": "Feature", "properties": {"name": "Becharof National Wildlife Refuge", "reference": "K-0145", "activated": "False"}, "geometry": {"type": "Point", "coordinates": [-156.611, 58.0988]}}, {"type": "Feature", "properties": {"name": "Innoko National Wildlife Refuge", "reference": "K-0146", "activated": "False"}, "geometry": {"type": "Point", "coordinates": [-158.203, 63.5427]}}, {"type": "Feature", "properties": {"name": "Izembek National Wildlife Refuge", "reference": "K-0147", "activated": "True"}, "geometry": {"type": "Point", "coordinates": [-162.672, 55.2927]}}, {"type": "Feature", "properties": {"name": "Kanuti National Wildlife Refuge", "reference": "K-0148", "activated": "False"}, "geometry": {"type": "Point", "coordinates": [-151.494, 66.8835]}}, {"type": "Feature", "properties": {"name": "Kenai National Wildlife Refuge", "reference": "K-0149", "activated": "True"}, "geometry": {"type": "Point", "coordinates": [-150.555, 60.5179]}}, {"type": "Feature", "properties": {"name": "Kodiak National Wildlife Refuge", "reference": "K-0150", "activated": "False"}, "geometry": {"type": "Point", "coordinates": [-152.52, 57.7412]}}, {"type": "Feature", "properties": {"name": "Koyukuk National Wildlife Refuge", "reference": "K-0151", "activated": "False"}, "geometry": {"type": "Point", "coordinates": [-156.388, 65.693]}}, {"type": "Feature", "properties": {"name": "Nowitna National Wildlife Refuge", "reference": "K-0152", "activated": "False"}, "geometry": {"type": "Point", "coordinates": [-153.932, 64.6535]}}, {"type": "Feature", "properties": {"name": "Selawik National Wildlife Refuge", "reference": "K-0153", "activated": "False"}, "geometry": {"type": "Point", "coordinates": [-159.066, 66.6633]}}, {"type": "Feature", "properties": {"name": "Tetlin National Wildlife Refuge", "reference": "K-0154", "activated": "False"}, "geometry": {"type": "Point", "coordinates": [-141.126, 62.6854]}}, {"type": "Feature", "properties": {"name": "Togiak National Wildlife Refuge", "reference": "K-0155", "activated": "False"}, "geometry": {"type": "Point", "coordinates": [-158.579, 59.0518]}}, {"type": "Feature", "properties": {"name": "Yukon Delta National Wildlife Refuge", "reference": "K-0156", "activated": "False"}, "geometry": {"type": "Point", "coordinates": [-162.899, 61.935]}}, {"type": "Feature", "properties": {"name": "Yukon Flats National Wildlife Refuge", "reference": "K-0157", "activated": "False"}, "geometry": {"type": "Point", "coordinates": [-149.06, 66.0144]}}, {"type": "Feature", "properties": {"name": "Mountain Longleaf National Wildlife Refuge", "reference": "K-0158", "activated": "True"}, "geometry": {"type": "Point", "coordinates": [-85.7381, 33.7119]}}, {"type": "Feature", "properties": {"name": "Sauta Cave National Wildlife Refuge", "reference": "K-0159", "activated": "True"}, "geometry": {"type": "Point", "coordinates": [-86.1354, 34.6121]}}, {"type": "Feature", "properties": {"name": "Watercress Darter National Wildlife Refuge", "reference": "K-0160", "activated": "True"}, "geometry": {"type": "Point", "coordinates": [-86.9649, 33.3751]}}, {"type": "Feature", "properties": {"name": "Wheeler National Wildlife Refuge", "reference": "K-0161", "activated": "True"}, "geometry": {"type": "Point", "coordinates": [-86.9531, 34.5572]}}, {"type": "Feature", "properties": {"name": "Bald Knob National Wildlife Refuge", "reference": "K-0162", "activated": "True"}, "geometry": {"type": "Point", "coordinates": [-91.5715, 35.2377]}}, {"type": "Feature", "properties": {"name": "Big Lake National Wildlife Refuge", "reference": "K-0163", "activated": "True"}, "geometry": {"type": "Point", "coordinates": [-90.1198, 35.9135]}}, {"type": "Feature", "properties": {"name": "Cache River National Wildlife Refuge", "reference": "K-0164", "activated": "True"}, "geometry": {"type": "Point", "coordinates": [-91.319, 35.0606]}}, {"type": "Feature", "properties": {"name": "Felsenthal National Wildlife Refuge", "reference": "K-0165", "activated": "True"}, "geometry": {"type": "Point", "coordinates": [-92.0626, 33.1494]}}, {"type": "Feature", "properties": {"name": "Holla Bend National Wildlife Refuge", "reference": "K-0166", "activated": "True"}, "geometry": {"type": "Point", "coordinates": [-93.0698, 35.1432]}}, {"type": "Feature", "properties": {"name": "Logan Cave National Wildlife Refuge", "reference": "K-0167", "activated": "True"}, "geometry": {"type": "Point", "coordinates": [-94.396, 36.1976]}}, {"type": "Feature", "properties": {"name": "Overflow National Wildlife Refuge", "reference": "K-0168", "activated": "True"}, "geometry": {"type": "Point", "coordinates": [-91.6685, 33.0791]}}, {"type": "Feature", "properties": {"name": "Pond Creek National Wildlife Refuge", "reference": "K-0169", "activated": "True"}, "geometry": {"type": "Point", "coordinates": [-94.1477, 33.8004]}}, {"type": "Feature", "properties": {"name": "Wapanocca National Wildlife Refuge", "reference": "K-0170", "activated": "True"}, "geometry": {"type": "Point", "coordinates": [-90.2149, 35.3437]}}, {"type": "Feature", "properties": {"name": "White River National Wildlife Refuge", "reference": "K-0171", "activated": "True"}, "geometry": {"type": "Point", "coordinates": [-91.1211, 34.3575]}}, {"type": "Feature", "properties": {"name": "Bill Williams River National Wildlife Refuge", "reference": "K-0172", "activated": "True"}, "geometry": {"type": "Point", "coordinates": [-114.048, 34.2727]}}, {"type": "Feature", "properties": {"name": "Buenos Aires National Wildlife Refuge", "reference": "K-0173", "activated": "True"}, "geometry": {"type": "Point", "coordinates": [-111.508, 31.5718]}}, {"type": "Feature", "properties": {"name": "Cabeza Prieta National Wildlife Refuge", "reference": "K-0174", "activated": "True"}, "geometry": {"type": "Point", "coordinates": [-113.289, 32.1864]}}, {"type": "Feature", "properties": {"name": "Cibola National Wildlife Refuge", "reference": "K-0175", "activated": "True"}, "geometry": {"type": "Point", "coordinates": [-114.672, 33.3635]}}, {"type": "Feature", "properties": {"name": "Imperial National Wildlife Refuge", "reference": "K-0176", "activated": "True"}, "geometry": {"type": "Point", "coordinates": [-114.681, 33.1498]}}, {"type": "Feature", "properties": {"name": "Kofa National Wildlife Refuge", "reference": "K-0177", "activated": "True"}, "geometry": {"type": "Point", "coordinates": [-114.476, 32.6783]}}, {"type": "Feature", "properties": {"name": "Leslie Canyon National Wildlife Refuge", "reference": "K-0178", "activated": "True"}, "geometry": {"type": "Point", "coordinates": [-109.504, 31.5791]}}, {"type": "Feature", "properties": {"name": "San Bernardino National Wildlife Refuge", "reference": "K-0179", "activated": "True"}, "geometry": {"type": "Point", "coordinates": [-109.251, 31.3415]}}, {"type": "Feature", "properties": {"name": "Twin Lights State Historic Site", "reference": "K-0180", "activated": "True"}, "geometry": {"type": "Point", "coordinates": [-73.986, 40.3962]}}, {"type": "Feature", "properties": {"name": "Bitter Creek National Wildlife Refuge", "reference": "K-0181", "activated": "True"}, "geometry": {"type": "Point", "coordinates": [-119.443, 34.9589]}}, {"type": "Feature", "properties": {"name": "Blue Ridge National Wildlife Refuge", "reference": "K-0182", "activated": "True"}, "geometry": {"type": "Point", "coordinates": [-118.845, 36.2762]}}, {"type": "Feature", "properties": {"name": "Penrose Commons National Recreation Area", "reference": "K-0183", "activated": "True"}, "geometry": {"type": "Point", "coordinates": [-105.034, 38.4778]}}, {"type": "Feature", "properties": {"name": "Ramah State Wildlife Area", "reference": "K-0184", "activated": "True"}, "geometry": {"type": "Point", "coordinates": [-104.2, 39.0849]}}, {"type": "Feature", "properties": {"name": "Hugo State Wildlife Area", "reference": "K-0185", "activated": "True"}, "geometry": {"type": "Point", "coordinates": [-103.378, 38.8938]}}, {"type": "Feature", "properties": {"name": "Coachella Valley National Wildlife Refuge", "reference": "K-0186", "activated": "True"}, "geometry": {"type": "Point", "coordinates": [-116.311, 33.8405]}}, {"type": "Feature", "properties": {"name": "Colusa National Wildlife Refuge", "reference": "K-0187", "activated": "True"}, "geometry": {"type": "Point", "coordinates": [-122.039, 39.1966]}}, {"type": "Feature", "properties": {"name": "Kinney Lake State Wildlife Area", "reference": "K-0188", "activated": "True"}, "geometry": {"type": "Point", "coordinates": [-103.443, 38.9648]}}, {"type": "Feature", "properties": {"name": "Don Edwards San Francisco Bay National Wildlife Refuge", "reference": "K-0189", "activated": "True"}, "geometry": {"type": "Point", "coordinates": [-122.064, 37.5299]}}, {"type": "Feature", "properties": {"name": "Flagler Reservoir State Wildlife Area", "reference": "K-0190", "activated": "True"}, "geometry": {"type": "Point", "coordinates": [-102.982, 39.278]}}, {"type": "Feature", "properties": {"name": "Brush Hollow State Wildlife Area", "reference": "K-0191", "activated": "True"}, "geometry": {"type": "Point", "coordinates": [-105.014, 38.4419]}}, {"type": "Feature", "properties": {"name": "Beaver Creek State Wildlife Area", "reference": "K-0192", "activated": "True"}, "geometry": {"type": "Point", "coordinates": [-105.023, 38.5376]}}, {"type": "Feature", "properties": {"name": "Guadalupe-Nipomo Dunes National Wildlife Refuge", "reference": "K-0193", "activated": "True"}, "geometry": {"type": "Point", "coordinates": [-120.572, 34.9725]}}, {"type": "Feature", "properties": {"name": "Havasu National Wildlife Refuge", "reference": "K-0194", "activated": "True"}, "geometry": {"type": "Point", "coordinates": [-114.441, 34.6668]}}, {"type": "Feature", "properties": {"name": "Ogden-Treat State Wildlife Area", "reference": "K-0195", "activated": "True"}, "geometry": {"type": "Point", "coordinates": [-105.767, 38.3999]}}, {"type": "Feature", "properties": {"name": "Humboldt Bay National Wildlife Refuge", "reference": "K-0196", "activated": "True"}, "geometry": {"type": "Point", "coordinates": [-124.218, 40.7195]}}, {"type": "Feature", "properties": {"name": "Kern National Wild and Scenic River", "reference": "K-0197", "activated": "True"}, "geometry": {"type": "Point", "coordinates": [-118.45, 35.7962]}}, {"type": "Feature", "properties": {"name": "Kesterson National Wildlife Refuge", "reference": "K-0198", "activated": "True"}, "geometry": {"type": "Point", "coordinates": [-120.819, 37.1519]}}, {"type": "Feature", "properties": {"name": "Lower Klamath National Wildlife Refuge", "reference": "K-0199", "activated": "True"}, "geometry": {"type": "Point", "coordinates": [-121.711, 41.9486]}}, {"type": "Feature", "properties": {"name": "Sarah Helmick State Recreation Area", "reference": "K-0200", "activated": "True"}, "geometry": {"type": "Point", "coordinates": [-123.237, 44.7818]}}, {"type": "Feature", "properties": {"name": "Merced National Wild and Scenic River", "reference": "K-0201", "activated": "True"}, "geometry": {"type": "Point", "coordinates": [-120.976, 37.3492]}}, {"type": "Feature", "properties": {"name": "Modoc National Wildlife Refuge", "reference": "K-0202", "activated": "False"}, "geometry": {"type": "Point", "coordinates": [-120.546, 41.4717]}}, {"type": "Feature", "properties": {"name": "North Central Valley Wildlife Management Area", "reference": "K-0203", "activated": "True"}, "geometry": {"type": "Point", "coordinates": [-122.192, 39.4287]}}, {"type": "Feature", "properties": {"name": "Pixley National Wildlife Refuge", "reference": "K-0204", "activated": "True"}, "geometry": {"type": "Point", "coordinates": [-119.376, 35.906]}}, {"type": "Feature", "properties": {"name": "Sacramento National Wildlife Refuge", "reference": "K-0205", "activated": "True"}, "geometry": {"type": "Point", "coordinates": [-122.192, 39.4287]}}, {"type": "Feature", "properties": {"name": "Sacramento River National Wildlife Refuge", "reference": "K-0206", "activated": "True"}, "geometry": {"type": "Point", "coordinates": [-122.192, 39.4287]}}, {"type": "Feature", "properties": {"name": "Salinas River National Wildlife Refuge", "reference": "K-0207", "activated": "True"}, "geometry": {"type": "Point", "coordinates": [-121.794, 36.7346]}}, {"type": "Feature", "properties": {"name": "San Diego National Wildlife Refuge", "reference": "K-0208", "activated": "True"}, "geometry": {"type": "Point", "coordinates": [-116.846, 32.6843]}}, {"type": "Feature", "properties": {"name": "San Diego Bay National Wildlife Refuge", "reference": "K-0209", "activated": "True"}, "geometry": {"type": "Point", "coordinates": [-117.11, 32.6412]}}, {"type": "Feature", "properties": {"name": "San Joaquin River National Wildlife Refuge", "reference": "K-0210", "activated": "True"}, "geometry": {"type": "Point", "coordinates": [-121.221, 37.6126]}}, {"type": "Feature", "properties": {"name": "San Luis National Wildlife Refuge", "reference": "K-0211", "activated": "True"}, "geometry": {"type": "Point", "coordinates": [-120.819, 37.1519]}}, {"type": "Feature", "properties": {"name": "San Pablo Bay National Wildlife Refuge", "reference": "K-0212", "activated": "True"}, "geometry": {"type": "Point", "coordinates": [-122.465, 38.1407]}}, {"type": "Feature", "properties": {"name": "Maud Williamson State Recreation Area", "reference": "K-0213", "activated": "True"}, "geometry": {"type": "Point", "coordinates": [-123.069, 45.0959]}}, {"type": "Feature", "properties": {"name": "Sonny Bono Salton Sea National Wildlife Refuge", "reference": "K-0214", "activated": "True"}, "geometry": {"type": "Point", "coordinates": [-115.615, 33.1775]}}, {"type": "Feature", "properties": {"name": "Stone Lakes National Wildlife Refuge", "reference": "K-0215", "activated": "True"}, "geometry": {"type": "Point", "coordinates": [-121.495, 38.371]}}, {"type": "Feature", "properties": {"name": "Sutter National Wildlife Refuge", "reference": "K-0216", "activated": "True"}, "geometry": {"type": "Point", "coordinates": [-121.75, 39.0668]}}, {"type": "Feature", "properties": {"name": "Tijuana Slough National Wildlife Refuge", "reference": "K-0217", "activated": "True"}, "geometry": {"type": "Point", "coordinates": [-117.127, 32.5756]}}, {"type": "Feature", "properties": {"name": "Tule Lake National Monument", "reference": "K-0218", "activated": "True"}, "geometry": {"type": "Point", "coordinates": [-121.565, 41.9468]}}, {"type": "Feature", "properties": {"name": "H.B. VanDuzer State Recreation Area", "reference": "K-0219", "activated": "True"}, "geometry": {"type": "Point", "coordinates": [-123.809, 45.0387]}}, {"type": "Feature", "properties": {"name": "Alamosa National Wildlife Refuge", "reference": "K-0220", "activated": "True"}, "geometry": {"type": "Point", "coordinates": [-105.77, 37.4294]}}, {"type": "Feature", "properties": {"name": "Arapaho National Wildlife Refuge", "reference": "K-0221", "activated": "True"}, "geometry": {"type": "Point", "coordinates": [-106.276, 40.6177]}}, {"type": "Feature", "properties": {"name": "Baca National Wildlife Refuge", "reference": "K-0222", "activated": "True"}, "geometry": {"type": "Point", "coordinates": [-105.775, 37.8615]}}, {"type": "Feature", "properties": {"name": "Browns Park National Wildlife Refuge", "reference": "K-0223", "activated": "True"}, "geometry": {"type": "Point", "coordinates": [-108.956, 40.8128]}}, {"type": "Feature", "properties": {"name": "Monte Vista National Wildlife Refuge", "reference": "K-0224", "activated": "True"}, "geometry": {"type": "Point", "coordinates": [-106.098, 37.4881]}}, {"type": "Feature", "properties": {"name": "Rocky Flats National Wildlife Refuge", "reference": "K-0225", "activated": "True"}, "geometry": {"type": "Point", "coordinates": [-105.19, 39.8773]}}, {"type": "Feature", "properties": {"name": "Rocky Mountain Arsenal National Wildlife Refuge", "reference": "K-0226", "activated": "True"}, "geometry": {"type": "Point", "coordinates": [-104.837, 39.8367]}}, {"type": "Feature", "properties": {"name": "Two Ponds National Wildlife Refuge", "reference": "K-0227", "activated": "True"}, "geometry": {"type": "Point", "coordinates": [-105.106, 39.8389]}}, {"type": "Feature", "properties": {"name": "Stewart B. Mckinney National Wildlife Refuge", "reference": "K-0228", "activated": "True"}, "geometry": {"type": "Point", "coordinates": [-72.4716, 41.2861]}}, {"type": "Feature", "properties": {"name": "Bombay Hook National Wildlife Refuge", "reference": "K-0229", "activated": "True"}, "geometry": {"type": "Point", "coordinates": [-75.4514, 39.2531]}}, {"type": "Feature", "properties": {"name": "Prime Hook National Wildlife Refuge", "reference": "K-0230", "activated": "True"}, "geometry": {"type": "Point", "coordinates": [-75.2651, 38.861]}}, {"type": "Feature", "properties": {"name": "Archie Carr National Wildlife Refuge", "reference": "K-0231", "activated": "True"}, "geometry": {"type": "Point", "coordinates": [-80.456, 27.8759]}}, {"type": "Feature", "properties": {"name": "Arthur R. Marshall Loxahatchee National Wildlife Refuge", "reference": "K-0232", "activated": "True"}, "geometry": {"type": "Point", "coordinates": [-80.2117, 26.4992]}}, {"type": "Feature", "properties": {"name": "Caloosahatchee National Wildlife Refuge", "reference": "K-0233", "activated": "True"}, "geometry": {"type": "Point", "coordinates": [-81.7956, 26.6984]}}, {"type": "Feature", "properties": {"name": "Cedar Keys National Wildlife Refuge", "reference": "K-0234", "activated": "True"}, "geometry": {"type": "Point", "coordinates": [-83.0319, 29.126]}}, {"type": "Feature", "properties": {"name": "Chassahowitzka National Wildlife Refuge", "reference": "K-0235", "activated": "True"}, "geometry": {"type": "Point", "coordinates": [-82.6269, 28.7725]}}, {"type": "Feature", "properties": {"name": "Crocodile Lake National Wildlife Refuge", "reference": "K-0236", "activated": "True"}, "geometry": {"type": "Point", "coordinates": [-80.3566, 25.1917]}}, {"type": "Feature", "properties": {"name": "Crystal River National Wildlife Refuge", "reference": "K-0237", "activated": "True"}, "geometry": {"type": "Point", "coordinates": [-82.5892, 28.8893]}}, {"type": "Feature", "properties": {"name": "Egmont Key National Wildlife Refuge", "reference": "K-0238", "activated": "True"}, "geometry": {"type": "Point", "coordinates": [-82.7597, 27.5969]}}, {"type": "Feature", "properties": {"name": "Florida Panther National Wildlife Refuge", "reference": "K-0239", "activated": "True"}, "geometry": {"type": "Point", "coordinates": [-81.4054, 26.1859]}}, {"type": "Feature", "properties": {"name": "Great White Heron National Wildlife Refuge", "reference": "K-0240", "activated": "True"}, "geometry": {"type": "Point", "coordinates": [-81.5836, 24.5984]}}, {"type": "Feature", "properties": {"name": "Hobe Sound National Wildlife Refuge", "reference": "K-0241", "activated": "True"}, "geometry": {"type": "Point", "coordinates": [-80.1119, 27.0369]}}, {"type": "Feature", "properties": {"name": "Island Bay National Wildlife Refuge", "reference": "K-0242", "activated": "False"}, "geometry": {"type": "Point", "coordinates": [-82.1803, 26.7743]}}, {"type": "Feature", "properties": {"name": "J.N. Ding Darling National Wildlife Refuge", "reference": "K-0243", "activated": "True"}, "geometry": {"type": "Point", "coordinates": [-82.113, 26.4451]}}, {"type": "Feature", "properties": {"name": "Key West National Wildlife Refuge", "reference": "K-0244", "activated": "True"}, "geometry": {"type": "Point", "coordinates": [-81.9749, 24.5716]}}, {"type": "Feature", "properties": {"name": "Lake Wales Ridge Wildlife Management Area", "reference": "K-0245", "activated": "True"}, "geometry": {"type": "Point", "coordinates": [-81.4056, 27.5312]}}, {"type": "Feature", "properties": {"name": "Lake Woodruff National Wildlife Refuge", "reference": "K-0246", "activated": "True"}, "geometry": {"type": "Point", "coordinates": [-81.371, 29.1068]}}, {"type": "Feature", "properties": {"name": "Lower Suwannee National Wildlife Refuge", "reference": "K-0247", "activated": "True"}, "geometry": {"type": "Point", "coordinates": [-83.0377, 29.374]}}, {"type": "Feature", "properties": {"name": "Matlacha Pass National Wildlife Refuge", "reference": "K-0248", "activated": "True"}, "geometry": {"type": "Point", "coordinates": [-82.082, 26.5589]}}, {"type": "Feature", "properties": {"name": "Merritt Island National Wildlife Refuge", "reference": "K-0249", "activated": "True"}, "geometry": {"type": "Point", "coordinates": [-80.7361, 28.642]}}, {"type": "Feature", "properties": {"name": "National Key Deer National Wildlife Refuge", "reference": "K-0250", "activated": "True"}, "geometry": {"type": "Point", "coordinates": [-81.3928, 24.7324]}}, {"type": "Feature", "properties": {"name": "Passage Key National Wildlife Refuge", "reference": "K-0251", "activated": "True"}, "geometry": {"type": "Point", "coordinates": [-82.7426, 27.5555]}}, {"type": "Feature", "properties": {"name": "Pelican Island National Wildlife Refuge", "reference": "K-0252", "activated": "True"}, "geometry": {"type": "Point", "coordinates": [-80.4253, 27.8106]}}, {"type": "Feature", "properties": {"name": "Pine Island National Wildlife Refuge", "reference": "K-0253", "activated": "True"}, "geometry": {"type": "Point", "coordinates": [-82.2001, 26.6788]}}, {"type": "Feature", "properties": {"name": "Pinellas National Wildlife Refuge", "reference": "K-0254", "activated": "True"}, "geometry": {"type": "Point", "coordinates": [-82.6862, 27.6657]}}, {"type": "Feature", "properties": {"name": "St. Johns National Wildlife Refuge", "reference": "K-0255", "activated": "True"}, "geometry": {"type": "Point", "coordinates": [-80.8888, 28.5509]}}, {"type": "Feature", "properties": {"name": "St. Marks National Wildlife Refuge", "reference": "K-0256", "activated": "True"}, "geometry": {"type": "Point", "coordinates": [-84.2064, 30.1007]}}, {"type": "Feature", "properties": {"name": "St. Vincent National Wildlife Refuge", "reference": "K-0257", "activated": "True"}, "geometry": {"type": "Point", "coordinates": [-85.1318, 29.6592]}}, {"type": "Feature", "properties": {"name": "Ten Thousand Islands National Wildlife Refuge", "reference": "K-0258", "activated": "True"}, "geometry": {"type": "Point", "coordinates": [-81.5544, 25.9742]}}, {"type": "Feature", "properties": {"name": "Banks Lake National Wildlife Refuge", "reference": "K-0259", "activated": "True"}, "geometry": {"type": "Point", "coordinates": [-83.0956, 31.0351]}}, {"type": "Feature", "properties": {"name": "Blackbeard Island National Wildlife Refuge", "reference": "K-0260", "activated": "False"}, "geometry": {"type": "Point", "coordinates": [-81.1962, 31.5187]}}, {"type": "Feature", "properties": {"name": "Bond Swamp National Wildlife Refuge", "reference": "K-0261", "activated": "True"}, "geometry": {"type": "Point", "coordinates": [-83.5628, 32.7394]}}, {"type": "Feature", "properties": {"name": "Harris Neck National Wildlife Refuge", "reference": "K-0262", "activated": "True"}, "geometry": {"type": "Point", "coordinates": [-81.2678, 31.6312]}}, {"type": "Feature", "properties": {"name": "Okefenokee National Wildlife Refuge", "reference": "K-0263", "activated": "True"}, "geometry": {"type": "Point", "coordinates": [-82.408, 30.5777]}}, {"type": "Feature", "properties": {"name": "Piedmont National Wildlife Refuge", "reference": "K-0264", "activated": "True"}, "geometry": {"type": "Point", "coordinates": [-83.7126, 33.0987]}}, {"type": "Feature", "properties": {"name": "Pinckney Island National Wildlife Refuge", "reference": "K-0265", "activated": "True"}, "geometry": {"type": "Point", "coordinates": [-80.7848, 32.2298]}}, {"type": "Feature", "properties": {"name": "Wassaw National Wildlife Refuge", "reference": "K-0266", "activated": "False"}, "geometry": {"type": "Point", "coordinates": [-80.9922, 31.8945]}}, {"type": "Feature", "properties": {"name": "Wolf Island National Wildlife Refuge", "reference": "K-0267", "activated": "False"}, "geometry": {"type": "Point", "coordinates": [-81.301, 31.3501]}}, {"type": "Feature", "properties": {"name": "Desoto National Wildlife Refuge", "reference": "K-0268", "activated": "True"}, "geometry": {"type": "Point", "coordinates": [-96.0273, 41.5484]}}, {"type": "Feature", "properties": {"name": "Driftless Area National Wildlife Refuge", "reference": "K-0269", "activated": "True"}, "geometry": {"type": "Point", "coordinates": [-91.1908, 43.0441]}}, {"type": "Feature", "properties": {"name": "Iowa Wetland Management District", "reference": "K-0270", "activated": "True"}, "geometry": {"type": "Point", "coordinates": [-94.1184, 43.2986]}}, {"type": "Feature", "properties": {"name": "Neal Smith National Wildlife Refuge", "reference": "K-0271", "activated": "True"}, "geometry": {"type": "Point", "coordinates": [-93.2801, 41.5585]}}, {"type": "Feature", "properties": {"name": "Port Louisa National Wildlife Refuge", "reference": "K-0272", "activated": "True"}, "geometry": {"type": "Point", "coordinates": [-91.1204, 41.2201]}}, {"type": "Feature", "properties": {"name": "Union Slough National Wildlife Refuge", "reference": "K-0273", "activated": "True"}, "geometry": {"type": "Point", "coordinates": [-94.1103, 43.2838]}}, {"type": "Feature", "properties": {"name": "Bear Lake National Wildlife Refuge", "reference": "K-0274", "activated": "True"}, "geometry": {"type": "Point", "coordinates": [-111.32, 42.174]}}, {"type": "Feature", "properties": {"name": "Camas National Wildlife Refuge", "reference": "K-0275", "activated": "True"}, "geometry": {"type": "Point", "coordinates": [-112.266, 43.9418]}}, {"type": "Feature", "properties": {"name": "Deer Flat National Wildlife Refuge", "reference": "K-0276", "activated": "True"}, "geometry": {"type": "Point", "coordinates": [-116.666, 43.5609]}}, {"type": "Feature", "properties": {"name": "Grays Lake National Wildlife Refuge", "reference": "K-0277", "activated": "True"}, "geometry": {"type": "Point", "coordinates": [-111.437, 43.0502]}}, {"type": "Feature", "properties": {"name": "Kootenai National Wildlife Refuge", "reference": "K-0278", "activated": "True"}, "geometry": {"type": "Point", "coordinates": [-116.405, 48.7163]}}, {"type": "Feature", "properties": {"name": "Minidoka National Wildlife Refuge", "reference": "K-0279", "activated": "True"}, "geometry": {"type": "Point", "coordinates": [-113.387, 42.6679]}}, {"type": "Feature", "properties": {"name": "Oxford Slough Wetland Management District", "reference": "K-0280", "activated": "True"}, "geometry": {"type": "Point", "coordinates": [-111.993, 42.2358]}}, {"type": "Feature", "properties": {"name": "Chautauqua National Wildlife Refuge", "reference": "K-0281", "activated": "True"}, "geometry": {"type": "Point", "coordinates": [-89.9761, 40.3853]}}, {"type": "Feature", "properties": {"name": "Crab Orchard National Wildlife Refuge", "reference": "K-0282", "activated": "True"}, "geometry": {"type": "Point", "coordinates": [-89.0208, 37.7198]}}, {"type": "Feature", "properties": {"name": "Cypress Creek National Wildlife Refuge", "reference": "K-0283", "activated": "True"}, "geometry": {"type": "Point", "coordinates": [-89.0953, 37.2801]}}, {"type": "Feature", "properties": {"name": "Emiquon National Wildlife Refuge", "reference": "K-0284", "activated": "True"}, "geometry": {"type": "Point", "coordinates": [-90.0975, 40.3242]}}, {"type": "Feature", "properties": {"name": "Meredosia National Wildlife Refuge", "reference": "K-0285", "activated": "True"}, "geometry": {"type": "Point", "coordinates": [-90.5678, 39.8719]}}, {"type": "Feature", "properties": {"name": "Middle Mississippi River National Wildlife Refuge", "reference": "K-0286", "activated": "True"}, "geometry": {"type": "Point", "coordinates": [-89.7263, 37.8531]}}, {"type": "Feature", "properties": {"name": "Two Rivers National Wildlife Refuge", "reference": "K-0287", "activated": "True"}, "geometry": {"type": "Point", "coordinates": [-90.5422, 38.9374]}}, {"type": "Feature", "properties": {"name": "Big Oaks National Wildlife Refuge", "reference": "K-0288", "activated": "True"}, "geometry": {"type": "Point", "coordinates": [-85.4165, 38.9605]}}, {"type": "Feature", "properties": {"name": "Muscatatuck National Wildlife Refuge", "reference": "K-0289", "activated": "True"}, "geometry": {"type": "Point", "coordinates": [-85.812, 38.9284]}}, {"type": "Feature", "properties": {"name": "Patoka River National Wildlife Refuge", "reference": "K-0290", "activated": "True"}, "geometry": {"type": "Point", "coordinates": [-87.1268, 38.3394]}}, {"type": "Feature", "properties": {"name": "Flint Hills National Wildlife Refuge", "reference": "K-0291", "activated": "True"}, "geometry": {"type": "Point", "coordinates": [-95.9642, 38.3123]}}, {"type": "Feature", "properties": {"name": "Kirwin National Wildlife Refuge", "reference": "K-0292", "activated": "True"}, "geometry": {"type": "Point", "coordinates": [-99.1743, 39.6657]}}, {"type": "Feature", "properties": {"name": "Marais Des Cygnes National Wildlife Refuge", "reference": "K-0293", "activated": "True"}, "geometry": {"type": "Point", "coordinates": [-94.6568, 38.2567]}}, {"type": "Feature", "properties": {"name": "Quivira National Wildlife Refuge", "reference": "K-0294", "activated": "True"}, "geometry": {"type": "Point", "coordinates": [-98.489, 38.0748]}}, {"type": "Feature", "properties": {"name": "Clarks River National Wildlife Refuge", "reference": "K-0295", "activated": "True"}, "geometry": {"type": "Point", "coordinates": [-88.3454, 36.8799]}}, {"type": "Feature", "properties": {"name": "Atchafalaya National Wildlife Refuge", "reference": "K-0296", "activated": "True"}, "geometry": {"type": "Point", "coordinates": [-91.7333, 30.4833]}}, {"type": "Feature", "properties": {"name": "Bayou Cocodrie National Wildlife Refuge", "reference": "K-0297", "activated": "True"}, "geometry": {"type": "Point", "coordinates": [-91.6004, 31.5747]}}, {"type": "Feature", "properties": {"name": "Bayou Sauvage National Wildlife Refuge", "reference": "K-0298", "activated": "True"}, "geometry": {"type": "Point", "coordinates": [-89.8668, 30.0914]}}, {"type": "Feature", "properties": {"name": "Bayou Teche National Wildlife Refuge", "reference": "K-0299", "activated": "True"}, "geometry": {"type": "Point", "coordinates": [-91.4637, 29.7853]}}, {"type": "Feature", "properties": {"name": "Big Branch Marsh National Wildlife Refuge", "reference": "K-0300", "activated": "True"}, "geometry": {"type": "Point", "coordinates": [-89.9366, 30.323]}}, {"type": "Feature", "properties": {"name": "Black Bayou Lake National Wildlife Refuge", "reference": "K-0301", "activated": "True"}, "geometry": {"type": "Point", "coordinates": [-92.0507, 32.6052]}}, {"type": "Feature", "properties": {"name": "Bogue Chitto National Wildlife Refuge", "reference": "K-0302", "activated": "True"}, "geometry": {"type": "Point", "coordinates": [-89.7802, 30.4559]}}, {"type": "Feature", "properties": {"name": "Breton National Wildlife Refuge", "reference": "K-0303", "activated": "False"}, "geometry": {"type": "Point", "coordinates": [-88.871, 29.7848]}}, {"type": "Feature", "properties": {"name": "Cameron Praire National Wildlife Refuge", "reference": "K-0304", "activated": "True"}, "geometry": {"type": "Point", "coordinates": [-93.076, 29.9506]}}, {"type": "Feature", "properties": {"name": "Cat Island National Wildlife Refuge", "reference": "K-0305", "activated": "True"}, "geometry": {"type": "Point", "coordinates": [-91.4382, 30.794]}}, {"type": "Feature", "properties": {"name": "Catahoula National Wildlife Refuge", "reference": "K-0306", "activated": "True"}, "geometry": {"type": "Point", "coordinates": [-91.9678, 31.6236]}}, {"type": "Feature", "properties": {"name": "D'Arbonne National Wildlife Refuge", "reference": "K-0307", "activated": "True"}, "geometry": {"type": "Point", "coordinates": [-92.1943, 32.6426]}}, {"type": "Feature", "properties": {"name": "Delta National Wildlife Refuge", "reference": "K-0308", "activated": "False"}, "geometry": {"type": "Point", "coordinates": [-89.1926, 29.2507]}}, {"type": "Feature", "properties": {"name": "Grand Cote National Wildlife Refuge", "reference": "K-0309", "activated": "True"}, "geometry": {"type": "Point", "coordinates": [-92.1404, 31.104]}}, {"type": "Feature", "properties": {"name": "Handy Brake National Wildlife Refuge", "reference": "K-0310", "activated": "True"}, "geometry": {"type": "Point", "coordinates": [-91.8018, 32.803]}}, {"type": "Feature", "properties": {"name": "Lacassine National Wildlife Refuge", "reference": "K-0311", "activated": "True"}, "geometry": {"type": "Point", "coordinates": [-92.7828, 30.0042]}}, {"type": "Feature", "properties": {"name": "Lake Ophelia National Wildlife Refuge", "reference": "K-0312", "activated": "True"}, "geometry": {"type": "Point", "coordinates": [-91.8305, 31.1929]}}, {"type": "Feature", "properties": {"name": "Louisiana Wetland Management District", "reference": "K-0313", "activated": "True"}, "geometry": {"type": "Point", "coordinates": [-92.6103, 32.5514]}}, {"type": "Feature", "properties": {"name": "Mandalay National Wildlife Refuge", "reference": "K-0314", "activated": "True"}, "geometry": {"type": "Point", "coordinates": [-90.7788, 29.5599]}}, {"type": "Feature", "properties": {"name": "Red River National Wildlife Refuge", "reference": "K-0315", "activated": "True"}, "geometry": {"type": "Point", "coordinates": [-93.673, 32.4481]}}, {"type": "Feature", "properties": {"name": "Sabine National Wildlife Refuge", "reference": "K-0316", "activated": "True"}, "geometry": {"type": "Point", "coordinates": [-93.5609, 29.9039]}}, {"type": "Feature", "properties": {"name": "Centro Vacacional Lago Caonillas State Park", "reference": "K-0317", "activated": "True"}, "geometry": {"type": "Point", "coordinates": [-66.6529, 18.2768]}}, {"type": "Feature", "properties": {"name": "Tensas River National Wildlife Refuge", "reference": "K-0318", "activated": "True"}, "geometry": {"type": "Point", "coordinates": [-91.377, 32.3264]}}, {"type": "Feature", "properties": {"name": "Upper Ouachita National Wildlife Refuge", "reference": "K-0319", "activated": "True"}, "geometry": {"type": "Point", "coordinates": [-92.0862, 32.8902]}}, {"type": "Feature", "properties": {"name": "Assabet River National Wildlife Refuge", "reference": "K-0320", "activated": "True"}, "geometry": {"type": "Point", "coordinates": [-71.4709, 42.4078]}}, {"type": "Feature", "properties": {"name": "Great Meadows National Wildlife Refuge", "reference": "K-0321", "activated": "True"}, "geometry": {"type": "Point", "coordinates": [-71.3725, 42.4013]}}, {"type": "Feature", "properties": {"name": "Mashpee National Wildlife Refuge", "reference": "K-0322", "activated": "True"}, "geometry": {"type": "Point", "coordinates": [-70.5111, 41.6022]}}, {"type": "Feature", "properties": {"name": "Centro Vacacional Punta Santiago State Park", "reference": "K-0323", "activated": "True"}, "geometry": {"type": "Point", "coordinates": [-65.7538, 18.1613]}}, {"type": "Feature", "properties": {"name": "Monomoy National Wildlife Refuge", "reference": "K-0324", "activated": "True"}, "geometry": {"type": "Point", "coordinates": [-70.008, 41.5804]}}, {"type": "Feature", "properties": {"name": "Nantucket National Wildlife Refuge", "reference": "K-0325", "activated": "True"}, "geometry": {"type": "Point", "coordinates": [-70.0491, 41.3901]}}, {"type": "Feature", "properties": {"name": "Nomans Land Island National Wildlife Refuge", "reference": "K-0326", "activated": "True"}, "geometry": {"type": "Point", "coordinates": [-70.815, 41.2581]}}, {"type": "Feature", "properties": {"name": "Oxbow National Wildlife Refuge", "reference": "K-0327", "activated": "True"}, "geometry": {"type": "Point", "coordinates": [-71.6223, 42.5161]}}, {"type": "Feature", "properties": {"name": "Parker River National Wildlife Refuge", "reference": "K-0328", "activated": "True"}, "geometry": {"type": "Point", "coordinates": [-70.8054, 42.7488]}}, {"type": "Feature", "properties": {"name": "Silvio O Conte National Wildlife Refuge", "reference": "K-0329", "activated": "True"}, "geometry": {"type": "Point", "coordinates": [-71.7018, 44.7678]}}, {"type": "Feature", "properties": {"name": "Thatcher Island National Wildlife Refuge", "reference": "K-0330", "activated": "False"}, "geometry": {"type": "Point", "coordinates": [-70.5741, 42.6395]}}, {"type": "Feature", "properties": {"name": "Blackwater National Wildlife Refuge", "reference": "K-0331", "activated": "True"}, "geometry": {"type": "Point", "coordinates": [-76.1194, 38.4454]}}, {"type": "Feature", "properties": {"name": "Eastern Neck National Wildlife Refuge", "reference": "K-0332", "activated": "True"}, "geometry": {"type": "Point", "coordinates": [-76.2248, 39.0311]}}, {"type": "Feature", "properties": {"name": "Martin National Wildlife Refuge", "reference": "K-0333", "activated": "True"}, "geometry": {"type": "Point", "coordinates": [-76.0344, 37.9958]}}, {"type": "Feature", "properties": {"name": "Patuxent National Wildlife Refuge", "reference": "K-0334", "activated": "True"}, "geometry": {"type": "Point", "coordinates": [-76.8168, 39.0545]}}, {"type": "Feature", "properties": {"name": "Susquehanna National Wildlife Refuge", "reference": "K-0335", "activated": "True"}, "geometry": {"type": "Point", "coordinates": [-76.0837, 39.4952]}}, {"type": "Feature", "properties": {"name": "Aroostook National Wildlife Refuge", "reference": "K-0336", "activated": "False"}, "geometry": {"type": "Point", "coordinates": [-67.8737, 46.9695]}}, {"type": "Feature", "properties": {"name": "Carlton Pond Wetland Management District", "reference": "K-0337", "activated": "False"}, "geometry": {"type": "Point", "coordinates": [-69.2721, 44.7058]}}, {"type": "Feature", "properties": {"name": "Cross Island National Wildlife Refuge", "reference": "K-0338", "activated": "False"}, "geometry": {"type": "Point", "coordinates": [-67.3041, 44.6102]}}, {"type": "Feature", "properties": {"name": "Franklin Island National Wildlife Refuge", "reference": "K-0339", "activated": "False"}, "geometry": {"type": "Point", "coordinates": [-69.374, 43.8921]}}, {"type": "Feature", "properties": {"name": "Spring Creek Hatchery State Park", "reference": "K-0340", "activated": "True"}, "geometry": {"type": "Point", "coordinates": [-121.549, 42.7275]}}, {"type": "Feature", "properties": {"name": "Moosehorn National Wildlife Refuge", "reference": "K-0341", "activated": "False"}, "geometry": {"type": "Point", "coordinates": [-67.2944, 45.0729]}}, {"type": "Feature", "properties": {"name": "Pond Island National Wildlife Refuge", "reference": "K-0342", "activated": "True"}, "geometry": {"type": "Point", "coordinates": [-69.77, 43.7397]}}, {"type": "Feature", "properties": {"name": "Rachel Carson National Wildlife Refuge", "reference": "K-0343", "activated": "True"}, "geometry": {"type": "Point", "coordinates": [-70.3926, 43.4344]}}, {"type": "Feature", "properties": {"name": "Seal Island National Wildlife Refuge", "reference": "K-0344", "activated": "False"}, "geometry": {"type": "Point", "coordinates": [-68.7424, 43.8852]}}, {"type": "Feature", "properties": {"name": "Sunkhaze Meadows National Wildlife Refuge", "reference": "K-0345", "activated": "True"}, "geometry": {"type": "Point", "coordinates": [-68.5734, 44.9792]}}, {"type": "Feature", "properties": {"name": "Detroit River National Wildlife Refuge", "reference": "K-0346", "activated": "True"}, "geometry": {"type": "Point", "coordinates": [-83.1337, 42.2232]}}, {"type": "Feature", "properties": {"name": "Harbor Island National Wildlife Refuge", "reference": "K-0347", "activated": "True"}, "geometry": {"type": "Point", "coordinates": [-83.7637, 46.0548]}}, {"type": "Feature", "properties": {"name": "Huron National Wildlife Refuge", "reference": "K-0348", "activated": "False"}, "geometry": {"type": "Point", "coordinates": [-87.9739, 46.9536]}}, {"type": "Feature", "properties": {"name": "Kirtlands Warbler Wildlife Management Area", "reference": "K-0349", "activated": "True"}, "geometry": {"type": "Point", "coordinates": [-84.7142, 44.66]}}, {"type": "Feature", "properties": {"name": "Michigan Wetland Management District", "reference": "K-0350", "activated": "True"}, "geometry": {"type": "Point", "coordinates": [-84.238, 42.238]}}, {"type": "Feature", "properties": {"name": "Centro Vacacional Villas de Anasco State Park", "reference": "K-0351", "activated": "False"}, "geometry": {"type": "Point", "coordinates": [-67.2026, 18.294]}}, {"type": "Feature", "properties": {"name": "Seney National Wildlife Refuge", "reference": "K-0352", "activated": "True"}, "geometry": {"type": "Point", "coordinates": [-85.946, 46.2885]}}, {"type": "Feature", "properties": {"name": "Shiawassee National Wildlife Refuge", "reference": "K-0353", "activated": "True"}, "geometry": {"type": "Point", "coordinates": [-84.0268, 43.3377]}}, {"type": "Feature", "properties": {"name": "Agassiz National Wildlife Refuge", "reference": "K-0354", "activated": "True"}, "geometry": {"type": "Point", "coordinates": [-95.982, 48.2998]}}, {"type": "Feature", "properties": {"name": "Big Stone National Wildlife Refuge", "reference": "K-0355", "activated": "True"}, "geometry": {"type": "Point", "coordinates": [-96.3406, 45.2602]}}, {"type": "Feature", "properties": {"name": "Big Stone Wetland Management District", "reference": "K-0356", "activated": "True"}, "geometry": {"type": "Point", "coordinates": [-95.9174, 44.3275]}}, {"type": "Feature", "properties": {"name": "Crane Meadows National Wildlife Refuge", "reference": "K-0357", "activated": "True"}, "geometry": {"type": "Point", "coordinates": [-94.2514, 45.9337]}}, {"type": "Feature", "properties": {"name": "Detroit Lakes Wetland Management District", "reference": "K-0358", "activated": "True"}, "geometry": {"type": "Point", "coordinates": [-95.8456, 46.8486]}}, {"type": "Feature", "properties": {"name": "Fergus Falls Wetland Management District", "reference": "K-0359", "activated": "True"}, "geometry": {"type": "Point", "coordinates": [-96.0639, 46.2665]}}, {"type": "Feature", "properties": {"name": "Glacial Ridge National Wildlife Refuge", "reference": "K-0360", "activated": "True"}, "geometry": {"type": "Point", "coordinates": [-96.3113, 47.6939]}}, {"type": "Feature", "properties": {"name": "Hamden Slough National Wildlife Refuge", "reference": "K-0361", "activated": "True"}, "geometry": {"type": "Point", "coordinates": [-96.0676, 46.8985]}}, {"type": "Feature", "properties": {"name": "Litchfield Wetland Management District", "reference": "K-0362", "activated": "True"}, "geometry": {"type": "Point", "coordinates": [-94.5328, 45.0718]}}, {"type": "Feature", "properties": {"name": "Centro Vacacional Boqueron State Park", "reference": "K-0363", "activated": "True"}, "geometry": {"type": "Point", "coordinates": [-67.1731, 18.0135]}}, {"type": "Feature", "properties": {"name": "Minnesota Valley National Wildlife Refuge", "reference": "K-0364", "activated": "True"}, "geometry": {"type": "Point", "coordinates": [-93.2157, 44.8598]}}, {"type": "Feature", "properties": {"name": "Minnesota Valley Wetland Management District", "reference": "K-0365", "activated": "True"}, "geometry": {"type": "Point", "coordinates": [-94.5329, 45.0696]}}, {"type": "Feature", "properties": {"name": "Morris Wetland Management District", "reference": "K-0366", "activated": "True"}, "geometry": {"type": "Point", "coordinates": [-95.8256, 45.5714]}}, {"type": "Feature", "properties": {"name": "Northern Tallgrass Prairie National Wildlife Refuge", "reference": "K-0367", "activated": "True"}, "geometry": {"type": "Point", "coordinates": [-96.1166, 44.4592]}}, {"type": "Feature", "properties": {"name": "Rice Lake National Wildlife Refuge", "reference": "K-0368", "activated": "True"}, "geometry": {"type": "Point", "coordinates": [-93.338, 46.5253]}}, {"type": "Feature", "properties": {"name": "Rydell National Wildlife Refuge", "reference": "K-0369", "activated": "True"}, "geometry": {"type": "Point", "coordinates": [-96.0907, 47.6589]}}, {"type": "Feature", "properties": {"name": "Sherburne National Wildlife Refuge", "reference": "K-0370", "activated": "True"}, "geometry": {"type": "Point", "coordinates": [-93.7112, 45.4839]}}, {"type": "Feature", "properties": {"name": "Tamarac National Wildlife Refuge", "reference": "K-0371", "activated": "True"}, "geometry": {"type": "Point", "coordinates": [-95.6547, 46.9581]}}, {"type": "Feature", "properties": {"name": "Upper Mississippi National Wildlife Refuge", "reference": "K-0372", "activated": "True"}, "geometry": {"type": "Point", "coordinates": [-91.2696, 43.5941]}}, {"type": "Feature", "properties": {"name": "Windom Wetland Management District", "reference": "K-0373", "activated": "True"}, "geometry": {"type": "Point", "coordinates": [-95.0866, 43.8584]}}, {"type": "Feature", "properties": {"name": "Big Muddy National Wildlife Refuge", "reference": "K-0374", "activated": "True"}, "geometry": {"type": "Point", "coordinates": [-92.5721, 38.9615]}}, {"type": "Feature", "properties": {"name": "Clarence Cannon National Wildlife Refuge", "reference": "K-0375", "activated": "True"}, "geometry": {"type": "Point", "coordinates": [-90.7814, 39.2661]}}, {"type": "Feature", "properties": {"name": "Great River National Wildlife Refuge", "reference": "K-0376", "activated": "True"}, "geometry": {"type": "Point", "coordinates": [-91.4985, 40.3279]}}, {"type": "Feature", "properties": {"name": "Mingo National Wildlife Refuge", "reference": "K-0377", "activated": "True"}, "geometry": {"type": "Point", "coordinates": [-90.1512, 36.9699]}}, {"type": "Feature", "properties": {"name": "Miller Peninsula State Park", "reference": "K-0378", "activated": "True"}, "geometry": {"type": "Point", "coordinates": [-122.946, 48.0658]}}, {"type": "Feature", "properties": {"name": "Dugualla State Park", "reference": "K-0379", "activated": "True"}, "geometry": {"type": "Point", "coordinates": [-122.572, 48.3401]}}, {"type": "Feature", "properties": {"name": "Loess Bluffs National Wildlife Refuge", "reference": "K-0380", "activated": "True"}, "geometry": {"type": "Point", "coordinates": [-95.2348, 40.0697]}}, {"type": "Feature", "properties": {"name": "Swan Lake National Wildlife Refuge", "reference": "K-0381", "activated": "True"}, "geometry": {"type": "Point", "coordinates": [-93.2325, 39.6332]}}, {"type": "Feature", "properties": {"name": "Coldwater River National Wildlife Refuge", "reference": "K-0382", "activated": "True"}, "geometry": {"type": "Point", "coordinates": [-90.1436, 34.0806]}}, {"type": "Feature", "properties": {"name": "Dahomey National Wildlife Refuge", "reference": "K-0383", "activated": "True"}, "geometry": {"type": "Point", "coordinates": [-90.9107, 33.7037]}}, {"type": "Feature", "properties": {"name": "Grand Bay National Wildlife Refuge", "reference": "K-0384", "activated": "True"}, "geometry": {"type": "Point", "coordinates": [-88.4244, 30.4248]}}, {"type": "Feature", "properties": {"name": "Hillside National Wildlife Refuge", "reference": "K-0385", "activated": "True"}, "geometry": {"type": "Point", "coordinates": [-90.3232, 33.0088]}}, {"type": "Feature", "properties": {"name": "Holt Collier National Wildlife Refuge", "reference": "K-0386", "activated": "True"}, "geometry": {"type": "Point", "coordinates": [-90.7846, 33.2319]}}, {"type": "Feature", "properties": {"name": "Mathews Brake National Wildlife Refuge", "reference": "K-0387", "activated": "True"}, "geometry": {"type": "Point", "coordinates": [-90.2544, 33.3651]}}, {"type": "Feature", "properties": {"name": "Mississippi Sandhill Crane National Wildlife Refuge", "reference": "K-0388", "activated": "True"}, "geometry": {"type": "Point", "coordinates": [-88.6618, 30.4458]}}, {"type": "Feature", "properties": {"name": "Morgan Brake National Wildlife Refuge", "reference": "K-0389", "activated": "True"}, "geometry": {"type": "Point", "coordinates": [-90.2247, 33.2171]}}, {"type": "Feature", "properties": {"name": "Noxubee National Wildlife Refuge", "reference": "K-0390", "activated": "True"}, "geometry": {"type": "Point", "coordinates": [-88.8728, 33.2715]}}, {"type": "Feature", "properties": {"name": "Panther Swamp National Wildlife Refuge", "reference": "K-0391", "activated": "True"}, "geometry": {"type": "Point", "coordinates": [-90.5271, 32.8185]}}, {"type": "Feature", "properties": {"name": "St. Catherine Creek National Wildlife Refuge", "reference": "K-0392", "activated": "True"}, "geometry": {"type": "Point", "coordinates": [-91.4508, 31.4094]}}, {"type": "Feature", "properties": {"name": "Tallahatchie National Wildlife Refuge", "reference": "K-0393", "activated": "True"}, "geometry": {"type": "Point", "coordinates": [-90.1365, 33.7692]}}, {"type": "Feature", "properties": {"name": "Wake Island National Wildlife Refuge", "reference": "K-0394", "activated": "False"}, "geometry": {"type": "Point", "coordinates": [166.647, 19.2819]}}, {"type": "Feature", "properties": {"name": "Yazoo National Wildlife Refuge", "reference": "K-0395", "activated": "True"}, "geometry": {"type": "Point", "coordinates": [-90.976, 33.0703]}}, {"type": "Feature", "properties": {"name": "Benton Lake National Wildlife Refuge", "reference": "K-0396", "activated": "True"}, "geometry": {"type": "Point", "coordinates": [-111.269, 47.6688]}}, {"type": "Feature", "properties": {"name": "Benton Lake Wetland Management District", "reference": "K-0397", "activated": "True"}, "geometry": {"type": "Point", "coordinates": [-111.282, 47.5735]}}, {"type": "Feature", "properties": {"name": "Bowdoin National Wildlife Refuge", "reference": "K-0398", "activated": "False"}, "geometry": {"type": "Point", "coordinates": [-107.579, 48.3953]}}, {"type": "Feature", "properties": {"name": "Charles M. Russell National Wildlife Refuge", "reference": "K-0399", "activated": "True"}, "geometry": {"type": "Point", "coordinates": [-107.957, 47.7002]}}, {"type": "Feature", "properties": {"name": "Halfbreed Lake National Wildlife Refuge", "reference": "K-0400", "activated": "True"}, "geometry": {"type": "Point", "coordinates": [-109.117, 45.9497]}}, {"type": "Feature", "properties": {"name": "Lake Mason National Wildlife Refuge", "reference": "K-0401", "activated": "True"}, "geometry": {"type": "Point", "coordinates": [-108.633, 46.7239]}}, {"type": "Feature", "properties": {"name": "Lee Metcalf National Wildlife Refuge", "reference": "K-0402", "activated": "True"}, "geometry": {"type": "Point", "coordinates": [-114.077, 46.5559]}}, {"type": "Feature", "properties": {"name": "Lost Trail National Wildlife Refuge", "reference": "K-0403", "activated": "False"}, "geometry": {"type": "Point", "coordinates": [-114.907, 48.175]}}, {"type": "Feature", "properties": {"name": "Medicine Lake National Wildlife Refuge", "reference": "K-0404", "activated": "True"}, "geometry": {"type": "Point", "coordinates": [-104.547, 48.4839]}}, {"type": "Feature", "properties": {"name": "National Bison Range National Wildlife Refuge", "reference": "K-0405", "activated": "True"}, "geometry": {"type": "Point", "coordinates": [-114.246, 47.3708]}}, {"type": "Feature", "properties": {"name": "Northwest Montana Wetland Management District", "reference": "K-0406", "activated": "True"}, "geometry": {"type": "Point", "coordinates": [-114.166, 47.4029]}}, {"type": "Feature", "properties": {"name": "Red Rock Lakes National Wildlife Refuge", "reference": "K-0407", "activated": "False"}, "geometry": {"type": "Point", "coordinates": [-111.679, 44.6233]}}, {"type": "Feature", "properties": {"name": "UL Bend National Wildlife Refuge", "reference": "K-0408", "activated": "True"}, "geometry": {"type": "Point", "coordinates": [-107.806, 47.5994]}}, {"type": "Feature", "properties": {"name": "War Horse National Wildlife Refuge", "reference": "K-0409", "activated": "False"}, "geometry": {"type": "Point", "coordinates": [-108.484, 47.1089]}}, {"type": "Feature", "properties": {"name": "Alligator River National Wildlife Refuge", "reference": "K-0410", "activated": "True"}, "geometry": {"type": "Point", "coordinates": [-75.8608, 35.864]}}, {"type": "Feature", "properties": {"name": "Cedar Island National Wildlife Refuge", "reference": "K-0411", "activated": "True"}, "geometry": {"type": "Point", "coordinates": [-76.3892, 34.9554]}}, {"type": "Feature", "properties": {"name": "Currituck National Wildlife Refuge", "reference": "K-0412", "activated": "True"}, "geometry": {"type": "Point", "coordinates": [-75.8493, 36.4519]}}, {"type": "Feature", "properties": {"name": "Mackay Island National Wildlife Refuge", "reference": "K-0413", "activated": "True"}, "geometry": {"type": "Point", "coordinates": [-75.9669, 36.5158]}}, {"type": "Feature", "properties": {"name": "Mattamuskeet National Wildlife Refuge", "reference": "K-0414", "activated": "True"}, "geometry": {"type": "Point", "coordinates": [-76.1749, 35.488]}}, {"type": "Feature", "properties": {"name": "Pea Island National Wildlife Refuge", "reference": "K-0415", "activated": "True"}, "geometry": {"type": "Point", "coordinates": [-75.4934, 35.7169]}}, {"type": "Feature", "properties": {"name": "Pee Dee National Wildlife Refuge", "reference": "K-0416", "activated": "True"}, "geometry": {"type": "Point", "coordinates": [-80.0638, 35.0589]}}, {"type": "Feature", "properties": {"name": "Pocosin Lakes National Wildlife Refuge", "reference": "K-0417", "activated": "True"}, "geometry": {"type": "Point", "coordinates": [-76.5421, 35.6929]}}, {"type": "Feature", "properties": {"name": "Roanoke River National Wildlife Refuge", "reference": "K-0418", "activated": "True"}, "geometry": {"type": "Point", "coordinates": [-77.0224, 35.8872]}}, {"type": "Feature", "properties": {"name": "Swanquarter National Wildlife Refuge", "reference": "K-0419", "activated": "True"}, "geometry": {"type": "Point", "coordinates": [-76.2538, 35.3802]}}, {"type": "Feature", "properties": {"name": "Arrowwood National Wildlife Refuge", "reference": "K-0420", "activated": "True"}, "geometry": {"type": "Point", "coordinates": [-98.8518, 47.2709]}}, {"type": "Feature", "properties": {"name": "Arrowwood Wetland Management District", "reference": "K-0421", "activated": "True"}, "geometry": {"type": "Point", "coordinates": [-98.8523, 47.2689]}}, {"type": "Feature", "properties": {"name": "Audubon National Wildlife Refuge", "reference": "K-0422", "activated": "True"}, "geometry": {"type": "Point", "coordinates": [-101.247, 47.5783]}}, {"type": "Feature", "properties": {"name": "Chase Lake National Wildlife Refuge", "reference": "K-0423", "activated": "False"}, "geometry": {"type": "Point", "coordinates": [-99.4602, 47.0238]}}, {"type": "Feature", "properties": {"name": "Des Lacs National Wildlife Refuge", "reference": "K-0424", "activated": "True"}, "geometry": {"type": "Point", "coordinates": [-102.098, 48.6694]}}, {"type": "Feature", "properties": {"name": "Devils Lake Wetland Management District", "reference": "K-0425", "activated": "True"}, "geometry": {"type": "Point", "coordinates": [-98.8676, 48.1101]}}, {"type": "Feature", "properties": {"name": "Florence Lake National Wildlife Refuge", "reference": "K-0426", "activated": "False"}, "geometry": {"type": "Point", "coordinates": [-100.323, 47.3015]}}, {"type": "Feature", "properties": {"name": "J. Clark Salyer National Wildlife Refuge", "reference": "K-0427", "activated": "True"}, "geometry": {"type": "Point", "coordinates": [-100.729, 48.6174]}}, {"type": "Feature", "properties": {"name": "J. Clark Salyer Wetland Management District", "reference": "K-0428", "activated": "True"}, "geometry": {"type": "Point", "coordinates": [-100.719, 48.6114]}}, {"type": "Feature", "properties": {"name": "Kellys Slough National Wildlife Refuge", "reference": "K-0429", "activated": "True"}, "geometry": {"type": "Point", "coordinates": [-97.2635, 47.9622]}}, {"type": "Feature", "properties": {"name": "Kulm Wetland Management District", "reference": "K-0430", "activated": "True"}, "geometry": {"type": "Point", "coordinates": [-98.9494, 46.3017]}}, {"type": "Feature", "properties": {"name": "Lake Alice National Wildlife Refuge", "reference": "K-0431", "activated": "True"}, "geometry": {"type": "Point", "coordinates": [-99.0797, 48.385]}}, {"type": "Feature", "properties": {"name": "Lake Ilo National Wildlife Refuge", "reference": "K-0432", "activated": "False"}, "geometry": {"type": "Point", "coordinates": [-102.667, 47.3574]}}, {"type": "Feature", "properties": {"name": "Lake Zahl National Wildlife Refuge", "reference": "K-0433", "activated": "True"}, "geometry": {"type": "Point", "coordinates": [-103.669, 48.5683]}}, {"type": "Feature", "properties": {"name": "Long Lake National Wildlife Refuge", "reference": "K-0434", "activated": "True"}, "geometry": {"type": "Point", "coordinates": [-100.228, 46.6699]}}, {"type": "Feature", "properties": {"name": "Lostwood National Wildlife Refuge", "reference": "K-0435", "activated": "True"}, "geometry": {"type": "Point", "coordinates": [-102.405, 48.6428]}}, {"type": "Feature", "properties": {"name": "Slade National Wildlife Refuge", "reference": "K-0436", "activated": "False"}, "geometry": {"type": "Point", "coordinates": [-99.7216, 46.8377]}}, {"type": "Feature", "properties": {"name": "Sullys Hill National Conservation Area", "reference": "K-0437", "activated": "True"}, "geometry": {"type": "Point", "coordinates": [-98.9989, 47.9877]}}, {"type": "Feature", "properties": {"name": "Tewaukon National Wildlife Refuge", "reference": "K-0438", "activated": "True"}, "geometry": {"type": "Point", "coordinates": [-97.3722, 46.0012]}}, {"type": "Feature", "properties": {"name": "Upper Souris National Wildlife Refuge", "reference": "K-0439", "activated": "True"}, "geometry": {"type": "Point", "coordinates": [-101.568, 48.4588]}}, {"type": "Feature", "properties": {"name": "Valley City Wetland Management District", "reference": "K-0440", "activated": "True"}, "geometry": {"type": "Point", "coordinates": [-98.0226, 46.9605]}}, {"type": "Feature", "properties": {"name": "Boyer Chute National Wildlife Refuge", "reference": "K-0441", "activated": "True"}, "geometry": {"type": "Point", "coordinates": [-95.9509, 41.4517]}}, {"type": "Feature", "properties": {"name": "Crescent Lake National Wildlife Refuge", "reference": "K-0442", "activated": "True"}, "geometry": {"type": "Point", "coordinates": [-102.4, 41.7105]}}, {"type": "Feature", "properties": {"name": "Fort Niobrara National Wildlife Refuge", "reference": "K-0443", "activated": "True"}, "geometry": {"type": "Point", "coordinates": [-100.477, 42.893]}}, {"type": "Feature", "properties": {"name": "Centro Vacacional Monte del Estado State Park", "reference": "K-0444", "activated": "True"}, "geometry": {"type": "Point", "coordinates": [-66.9747, 18.1406]}}, {"type": "Feature", "properties": {"name": "North Platte National Wildlife Refuge", "reference": "K-0445", "activated": "True"}, "geometry": {"type": "Point", "coordinates": [-103.532, 41.9549]}}, {"type": "Feature", "properties": {"name": "Rainwater Basin Wetland Management District", "reference": "K-0446", "activated": "True"}, "geometry": {"type": "Point", "coordinates": [-99.2171, 40.5173]}}, {"type": "Feature", "properties": {"name": "Valentine National Wildlife Refuge", "reference": "K-0447", "activated": "True"}, "geometry": {"type": "Point", "coordinates": [-100.535, 42.5391]}}, {"type": "Feature", "properties": {"name": "Great Bay National Wildlife Refuge", "reference": "K-0448", "activated": "True"}, "geometry": {"type": "Point", "coordinates": [-70.8436, 43.0892]}}, {"type": "Feature", "properties": {"name": "John Hay National Wildlife Refuge", "reference": "K-0449", "activated": "True"}, "geometry": {"type": "Point", "coordinates": [-72.0408, 43.3516]}}, {"type": "Feature", "properties": {"name": "Lake Umbagog National Wildlife Refuge", "reference": "K-0450", "activated": "True"}, "geometry": {"type": "Point", "coordinates": [-71.0757, 44.8319]}}, {"type": "Feature", "properties": {"name": "Wapack National Wildlife Refuge", "reference": "K-0451", "activated": "True"}, "geometry": {"type": "Point", "coordinates": [-71.8751, 42.9002]}}, {"type": "Feature", "properties": {"name": "Cape May National Wildlife Refuge", "reference": "K-0452", "activated": "True"}, "geometry": {"type": "Point", "coordinates": [-74.8796, 39.0998]}}, {"type": "Feature", "properties": {"name": "Edwin B. Forsythe National Wildlife Refuge", "reference": "K-0453", "activated": "True"}, "geometry": {"type": "Point", "coordinates": [-74.4498, 39.4647]}}, {"type": "Feature", "properties": {"name": "Great Swamp National Wildlife Refuge", "reference": "K-0454", "activated": "True"}, "geometry": {"type": "Point", "coordinates": [-74.5133, 40.7136]}}, {"type": "Feature", "properties": {"name": "Supawna Meadows National Wildlife Refuge", "reference": "K-0455", "activated": "True"}, "geometry": {"type": "Point", "coordinates": [-75.5343, 39.6169]}}, {"type": "Feature", "properties": {"name": "Wallkill River National Wildlife Refuge", "reference": "K-0456", "activated": "True"}, "geometry": {"type": "Point", "coordinates": [-74.5642, 41.2008]}}, {"type": "Feature", "properties": {"name": "Bitter Lake National Wildlife Refuge", "reference": "K-0457", "activated": "True"}, "geometry": {"type": "Point", "coordinates": [-104.372, 33.456]}}, {"type": "Feature", "properties": {"name": "Bosque Del Apache National Wildlife Refuge", "reference": "K-0458", "activated": "True"}, "geometry": {"type": "Point", "coordinates": [-106.879, 33.8044]}}, {"type": "Feature", "properties": {"name": "Las Vegas National Wildlife Refuge", "reference": "K-0459", "activated": "True"}, "geometry": {"type": "Point", "coordinates": [-105.135, 35.5252]}}, {"type": "Feature", "properties": {"name": "Maxwell National Wildlife Refuge", "reference": "K-0460", "activated": "True"}, "geometry": {"type": "Point", "coordinates": [-104.57, 36.5715]}}, {"type": "Feature", "properties": {"name": "San Andres National Wildlife Refuge", "reference": "K-0461", "activated": "True"}, "geometry": {"type": "Point", "coordinates": [-106.561, 32.7434]}}, {"type": "Feature", "properties": {"name": "Sevilleta National Wildlife Refuge", "reference": "K-0462", "activated": "True"}, "geometry": {"type": "Point", "coordinates": [-107.035, 34.3416]}}, {"type": "Feature", "properties": {"name": "Anaho Island National Wildlife Refuge", "reference": "K-0463", "activated": "False"}, "geometry": {"type": "Point", "coordinates": [-119.516, 39.9526]}}, {"type": "Feature", "properties": {"name": "Ash Meadows National Wildlife Refuge", "reference": "K-0464", "activated": "True"}, "geometry": {"type": "Point", "coordinates": [-116.288, 36.4255]}}, {"type": "Feature", "properties": {"name": "Desert National Wildlife Refuge", "reference": "K-0465", "activated": "True"}, "geometry": {"type": "Point", "coordinates": [-115.359, 36.438]}}, {"type": "Feature", "properties": {"name": "Fallon National Wildlife Refuge", "reference": "K-0466", "activated": "True"}, "geometry": {"type": "Point", "coordinates": [-118.79, 39.4756]}}, {"type": "Feature", "properties": {"name": "Moapa Valley National Wildlife Refuge", "reference": "K-0467", "activated": "True"}, "geometry": {"type": "Point", "coordinates": [-114.714, 36.7132]}}, {"type": "Feature", "properties": {"name": "Pahranagat National Wildlife Refuge", "reference": "K-0468", "activated": "True"}, "geometry": {"type": "Point", "coordinates": [-115.104, 37.2464]}}, {"type": "Feature", "properties": {"name": "Ruby Lake National Wildlife Refuge", "reference": "K-0469", "activated": "True"}, "geometry": {"type": "Point", "coordinates": [-115.493, 40.202]}}, {"type": "Feature", "properties": {"name": "Sheldon National Wildlife Refuge", "reference": "K-0470", "activated": "True"}, "geometry": {"type": "Point", "coordinates": [-119.132, 41.8865]}}, {"type": "Feature", "properties": {"name": "Stillwater National Wildlife Refuge", "reference": "K-0471", "activated": "True"}, "geometry": {"type": "Point", "coordinates": [-118.79, 39.4755]}}, {"type": "Feature", "properties": {"name": "Amagansett National Wildlife Refuge", "reference": "K-0472", "activated": "True"}, "geometry": {"type": "Point", "coordinates": [-72.1242, 40.9692]}}, {"type": "Feature", "properties": {"name": "Conscience Point National Wildlife Refuge", "reference": "K-0473", "activated": "True"}, "geometry": {"type": "Point", "coordinates": [-72.4183, 40.9421]}}, {"type": "Feature", "properties": {"name": "Elizabeth A. Morton National Wildlife Refuge", "reference": "K-0474", "activated": "True"}, "geometry": {"type": "Point", "coordinates": [-72.3684, 40.9884]}}, {"type": "Feature", "properties": {"name": "Iroquois National Wildlife Refuge", "reference": "K-0475", "activated": "True"}, "geometry": {"type": "Point", "coordinates": [-78.4072, 43.112]}}, {"type": "Feature", "properties": {"name": "Montezuma National Wildlife Refuge", "reference": "K-0476", "activated": "True"}, "geometry": {"type": "Point", "coordinates": [-76.7363, 42.963]}}, {"type": "Feature", "properties": {"name": "Oyster Bay National Wildlife Refuge", "reference": "K-0477", "activated": "True"}, "geometry": {"type": "Point", "coordinates": [-73.5406, 40.9031]}}, {"type": "Feature", "properties": {"name": "Seatuck National Wildlife Refuge", "reference": "K-0478", "activated": "True"}, "geometry": {"type": "Point", "coordinates": [-73.2074, 40.7153]}}, {"type": "Feature", "properties": {"name": "Shawangunk Grasslands National Wildlife Refuge", "reference": "K-0479", "activated": "True"}, "geometry": {"type": "Point", "coordinates": [-74.2068, 41.6381]}}, {"type": "Feature", "properties": {"name": "Target Rock National Wildlife Refuge", "reference": "K-0480", "activated": "True"}, "geometry": {"type": "Point", "coordinates": [-73.4303, 40.9271]}}, {"type": "Feature", "properties": {"name": "Wertheim National Wildlife Refuge", "reference": "K-0481", "activated": "True"}, "geometry": {"type": "Point", "coordinates": [-72.8803, 40.7936]}}, {"type": "Feature", "properties": {"name": "Cedar Point National Wildlife Refuge", "reference": "K-0482", "activated": "True"}, "geometry": {"type": "Point", "coordinates": [-83.3125, 41.672]}}, {"type": "Feature", "properties": {"name": "Ottawa National Wildlife Refuge", "reference": "K-0483", "activated": "True"}, "geometry": {"type": "Point", "coordinates": [-83.2106, 41.6074]}}, {"type": "Feature", "properties": {"name": "Parque Monte del Estado State Park", "reference": "K-0484", "activated": "False"}, "geometry": {"type": "Point", "coordinates": [-66.9805, 18.1428]}}, {"type": "Feature", "properties": {"name": "Deep Fork National Wildlife Refuge", "reference": "K-0485", "activated": "True"}, "geometry": {"type": "Point", "coordinates": [-95.9277, 35.5386]}}, {"type": "Feature", "properties": {"name": "Little River National Wildlife Refuge", "reference": "K-0486", "activated": "True"}, "geometry": {"type": "Point", "coordinates": [-94.7028, 33.9532]}}, {"type": "Feature", "properties": {"name": "Optima National Wildlife Refuge", "reference": "K-0487", "activated": "True"}, "geometry": {"type": "Point", "coordinates": [-101.213, 36.6435]}}, {"type": "Feature", "properties": {"name": "Ozark Plateau National Wildlife Refuge", "reference": "K-0488", "activated": "True"}, "geometry": {"type": "Point", "coordinates": [-94.7206, 36.322]}}, {"type": "Feature", "properties": {"name": "Salt Plains National Wildlife Refuge", "reference": "K-0489", "activated": "True"}, "geometry": {"type": "Point", "coordinates": [-98.1792, 36.7853]}}, {"type": "Feature", "properties": {"name": "Sequoyah National Wildlife Refuge", "reference": "K-0490", "activated": "True"}, "geometry": {"type": "Point", "coordinates": [-94.9724, 35.4474]}}, {"type": "Feature", "properties": {"name": "Tishomingo National Wildlife Refuge", "reference": "K-0491", "activated": "True"}, "geometry": {"type": "Point", "coordinates": [-96.6437, 34.1938]}}, {"type": "Feature", "properties": {"name": "Washita National Wildlife Refuge", "reference": "K-0492", "activated": "True"}, "geometry": {"type": "Point", "coordinates": [-99.2814, 35.6519]}}, {"type": "Feature", "properties": {"name": "Wichita Mountains National Wildlife Refuge", "reference": "K-0493", "activated": "True"}, "geometry": {"type": "Point", "coordinates": [-98.6236, 34.7106]}}, {"type": "Feature", "properties": {"name": "Ankeny National Wildlife Refuge", "reference": "K-0494", "activated": "True"}, "geometry": {"type": "Point", "coordinates": [-123.09, 44.7867]}}, {"type": "Feature", "properties": {"name": "Bandon Marsh National Wildlife Refuge", "reference": "K-0495", "activated": "True"}, "geometry": {"type": "Point", "coordinates": [-124.38, 43.1574]}}, {"type": "Feature", "properties": {"name": "Baskett Slough National Wildlife Refuge", "reference": "K-0496", "activated": "True"}, "geometry": {"type": "Point", "coordinates": [-123.254, 44.9662]}}, {"type": "Feature", "properties": {"name": "Bear Valley National Wildlife Refuge", "reference": "K-0497", "activated": "False"}, "geometry": {"type": "Point", "coordinates": [-121.924, 42.0611]}}, {"type": "Feature", "properties": {"name": "Cape Meares National Wildlife Refuge", "reference": "K-0498", "activated": "True"}, "geometry": {"type": "Point", "coordinates": [-123.973, 45.4911]}}, {"type": "Feature", "properties": {"name": "Cold Springs National Wildlife Refuge", "reference": "K-0499", "activated": "True"}, "geometry": {"type": "Point", "coordinates": [-119.125, 45.859]}}, {"type": "Feature", "properties": {"name": "Hart Mountain National Wildlife Refuge", "reference": "K-0500", "activated": "True"}, "geometry": {"type": "Point", "coordinates": [-119.797, 42.5493]}}, {"type": "Feature", "properties": {"name": "Klamath Marsh National Wildlife Refuge", "reference": "K-0501", "activated": "False"}, "geometry": {"type": "Point", "coordinates": [-121.726, 42.9215]}}, {"type": "Feature", "properties": {"name": "Malheur National Wildlife Refuge", "reference": "K-0502", "activated": "True"}, "geometry": {"type": "Point", "coordinates": [-118.765, 43.2659]}}, {"type": "Feature", "properties": {"name": "McKay Creek National Wildlife Refuge", "reference": "K-0503", "activated": "True"}, "geometry": {"type": "Point", "coordinates": [-118.787, 45.5777]}}, {"type": "Feature", "properties": {"name": "Nestucca Bay National Wildlife Refuge", "reference": "K-0504", "activated": "True"}, "geometry": {"type": "Point", "coordinates": [-123.952, 45.1621]}}, {"type": "Feature", "properties": {"name": "Oregon Islands National Wildlife Refuge", "reference": "K-0505", "activated": "True"}, "geometry": {"type": "Point", "coordinates": [-124.471, 43.1238]}}, {"type": "Feature", "properties": {"name": "Siletz Bay National Wildlife Refuge", "reference": "K-0506", "activated": "True"}, "geometry": {"type": "Point", "coordinates": [-124.012, 44.8952]}}, {"type": "Feature", "properties": {"name": "Three Arch Rocks National Wildlife Refuge", "reference": "K-0507", "activated": "False"}, "geometry": {"type": "Point", "coordinates": [-123.984, 45.4646]}}, {"type": "Feature", "properties": {"name": "Tualatin River National Wildlife Refuge", "reference": "K-0508", "activated": "True"}, "geometry": {"type": "Point", "coordinates": [-122.807, 45.3836]}}, {"type": "Feature", "properties": {"name": "Upper Klamath National Wildlife Refuge", "reference": "K-0509", "activated": "False"}, "geometry": {"type": "Point", "coordinates": [-122.089, 42.5099]}}, {"type": "Feature", "properties": {"name": "William L. Finley National Wildlife Refuge", "reference": "K-0510", "activated": "True"}, "geometry": {"type": "Point", "coordinates": [-123.341, 44.4075]}}, {"type": "Feature", "properties": {"name": "Erie National Wildlife Refuge", "reference": "K-0511", "activated": "True"}, "geometry": {"type": "Point", "coordinates": [-79.9598, 41.6267]}}, {"type": "Feature", "properties": {"name": "John Heinz National Wildlife Refuge", "reference": "K-0512", "activated": "True"}, "geometry": {"type": "Point", "coordinates": [-75.2575, 39.8929]}}, {"type": "Feature", "properties": {"name": "Block Island National Wildlife Refuge", "reference": "K-0513", "activated": "True"}, "geometry": {"type": "Point", "coordinates": [-71.5711, 41.2124]}}, {"type": "Feature", "properties": {"name": "John H. Chafee National Wildlife Refuge", "reference": "K-0514", "activated": "True"}, "geometry": {"type": "Point", "coordinates": [-71.4803, 41.4176]}}, {"type": "Feature", "properties": {"name": "Ninigret National Wildlife Refuge", "reference": "K-0515", "activated": "True"}, "geometry": {"type": "Point", "coordinates": [-71.6716, 41.3682]}}, {"type": "Feature", "properties": {"name": "Sachuest Point National Wildlife Refuge", "reference": "K-0516", "activated": "True"}, "geometry": {"type": "Point", "coordinates": [-71.2436, 41.4798]}}, {"type": "Feature", "properties": {"name": "Trustom Pond National Wildlife Refuge", "reference": "K-0517", "activated": "True"}, "geometry": {"type": "Point", "coordinates": [-71.5846, 41.3834]}}, {"type": "Feature", "properties": {"name": "Cape Romain National Wildlife Refuge", "reference": "K-0518", "activated": "True"},